stop_id,stop_name,stop_lat,stop_lon,zone_id
000000013900002,Kamenné nám.,48.1453514099121,17.113489151001,100
000000020900002,Mariánska,48.1473808288574,17.1155910491943,100
000000000300003,Americké nám.,48.1509666442871,17.1181144714355,100
000000030200001,Poštová - Martinus,48.146785736084,17.1089191436768,100
000000047300001,Vysoká,48.1486167907715,17.1124382019043,100
000000042200001,STU,48.1512870788574,17.1159992218018,100
000000008000002,Blumentál,48.1540222167969,17.1190547943115,100
000000008000001,Blumentál,48.1533737182617,17.1187610626221,100
000000018600002,Legionárska,48.1552314758301,17.1242847442627,100
000000018600001,Legionárska,48.1547698974609,17.1236515045166,100
000000043700002,Trnavské mýto,48.1578521728516,17.1274929046631,100
000000043700001,Trnavské mýto,48.1576194763184,17.1271152496338,100
000000026700002,Odbojárov,48.1625747680664,17.1322345733643,100
000000026700001,Odbojárov,48.1623649597168,17.132007598877,100
000000025700002,Nová doba,48.1650581359863,17.134635925293,100
000000025700001,Nová doba,48.1648254394531,17.1344146728516,100
000000021300002,POLUS CITY CENTER,48.169261932373,17.1387462615967,100
000000021300001,POLUS CITY CENTER,48.1690292358398,17.13844871521,100
000000048800002,Zátišie,48.1719551086426,17.1413669586182,100
000000048800001,Zátišie,48.1716728210449,17.1409721374512,100
000000051500002,ŽST Nové Mesto,48.1714935302734,17.1453647613525,100
000000051500001,ŽST Nové Mesto,48.171989440918,17.1451759338379,100
000000015600001,Komisárky,48.2162284851074,17.1662120819092,101
000000015600002,Komisárky,48.2164764404297,17.1668491363525,101
000000042500001,Púchovská,48.2147789001465,17.1632785797119,101
000000042500002,Púchovská,48.2149658203125,17.1638355255127,101
000000048400001,Záhumenice,48.2118453979492,17.1585578918457,101
000000048400002,Záhumenice,48.2119293212891,17.158863067627,101
000000005300001,Detvianska,48.2112350463867,17.1547203063965,101
000000005300002,Detvianska,48.2113265991211,17.154935836792,101
000000011100001,Hybešova,48.2079048156738,17.1505584716797,101
000000011100002,Hybešova,48.2080307006836,17.1507511138916,101
000000009100001,Hečkova,48.2030830383301,17.1496524810791,101
000000009100002,Hečkova,48.2029724121094,17.1495761871338,101
000000003600001,Černockého,48.2001571655273,17.1478385925293,101
000000003600002,Černockého,48.2000122070313,17.1478137969971,101
000000028700001,Pekná cesta,48.1952819824219,17.1434993743896,101
000000028700002,Pekná cesta,48.1950569152832,17.1432991027832,101
000000026200001,Malé Krasňany,48.1913833618164,17.1390724182129,101
000000026200002,Malé Krasňany,48.1914863586426,17.1392650604248,101
000000046500001,Vozovňa Krasňany,48.1883354187012,17.1354789733887,101
000000046500002,Vozovňa Krasňany,48.1884918212891,17.1357364654541,101
000000052200001,ŽST Vinohrady,48.1858787536621,17.1334896087646,100
000000052200002,ŽST Vinohrady,48.185962677002,17.1336727142334,100
000000024500001,Nám. Biely kríž,48.1820793151855,17.1296157836914,100
000000024500002,Nám. Biely kríž,48.1823348999023,17.1299896240234,100
000000022400001,Mladá garda,48.1780662536621,17.1281776428223,100
000000022400002,Mladá garda,48.1782379150391,17.1282844543457,100
000000033700001,Riazanská,48.1736946105957,17.1272983551025,100
000000033700002,Riazanská,48.1741523742676,17.1274375915527,100
000000029300001,Pionierska,48.168212890625,17.1273403167725,100
000000029300002,Pionierska,48.1694297790527,17.1273078918457,100
000000044600001,Ursínyho,48.1623649597168,17.1240787506104,100
000000044600002,Ursínyho,48.1625595092773,17.1244659423828,100
000000033200001,Račianske mýto,48.158145904541,17.1206130981445,100
000000033200002,Račianske mýto,48.1583786010742,17.1209468841553,100
000000000300001,Americké nám.,48.1510162353516,17.1178455352783,100
000000000300002,Americké nám.,48.1513595581055,17.1180057525635,100
000000020900001,Mariánska,48.1483726501465,17.1163330078125,100
000000025100002,Nám. SNP,48.1452751159668,17.1114597320557,100
000000031000001,Pri kríži,48.1948471069336,17.0336971282959,101
000000031000002,Pri kríži,48.1950759887695,17.0340194702148,101
000000026500001,OD Saratov,48.1921768188477,17.0347728729248,101
000000026500002,OD Saratov,48.1922645568848,17.035062789917,101
000000006800001,Drobného,48.188045501709,17.0364456176758,101
000000006800002,Drobného,48.1880798339844,17.0367679595947,101
000000000100001,Alexyho,48.1850051879883,17.0377216339111,101
000000000100002,Alexyho,48.185791015625,17.0377445220947,101
000000041800001,Švantnerova,48.1824417114258,17.0396003723145,101
000000041800002,Švantnerova,48.182487487793,17.0399436950684,101
000000005100001,Damborského,48.1792869567871,17.0435371398926,101
000000005100002,Damborského,48.1794815063477,17.0439453125,101
000000009800001,Horné Krčace,48.1740951538086,17.0489349365234,101
000000009800002,Horné Krčace,48.1741676330566,17.0492763519287,101
000000006000001,Dolné Krčace,48.1703300476074,17.0493850708008,101
000000006000002,Dolné Krčace,48.170352935791,17.0496730804443,101
000000014300001,Karlova Ves,48.1644859313965,17.0468101501465,100
000000014300002,Karlova Ves,48.1646003723145,17.0470142364502,100
000000001900001,Borská,48.1624298095703,17.0481719970703,100
000000001900002,Borská,48.1625671386719,17.0484409332275,100
000000018000001,MiÚ Karlova Ves,48.159065246582,17.0512619018555,100
000000018000002,MiÚ Karlova Ves,48.1591758728027,17.0514888763428,100
000000024000001,Nad lúčkami,48.1563034057617,17.0532035827637,100
000000024000002,Nad lúčkami,48.1564254760742,17.0534400939941,100
000000035300001,Segnerova,48.1537208557129,17.0571193695068,100
000000035300002,Segnerova,48.1538925170898,17.0572700500488,100
000000013400001,Jurigovo nám.,48.1522026062012,17.0612182617188,100
000000013400002,Jurigovo nám.,48.1522674560547,17.0614757537842,100
000000023000001,Molecova,48.1497268676758,17.0628051757813,100
000000023000002,Molecova,48.1498641967773,17.0630321502686,100
000000002100001,Botanická záhrada,48.1480369567871,17.0724945068359,100
000000002100002,Botanická záhrada,48.148250579834,17.072301864624,100
000000018100001,Lafranconi,48.1448745727539,17.0786209106445,100
000000018100002,Lafranconi,48.1450576782227,17.0784702301025,100
000000028100001,Park kultúry,48.1428451538086,17.0846500396729,100
000000028100002,Park kultúry,48.1430320739746,17.0844249725342,100
000000014100001,Kapucínska,48.1450004577637,17.1052494049072,100
000000014100002,Kapucínska,48.1449661254883,17.104959487915,100
000000026900002,Odborárske nám.,48.1521873474121,17.120548248291,100
000000026800002,Odborárska,48.1767501831055,17.1461944580078,100
000000026800001,Odborárska,48.1765747070313,17.1459083557129,100
000000020500002,Magnetová,48.1798782348633,17.1544914245605,100
000000020500001,Magnetová,48.1797256469727,17.1538677215576,100
000000013300002,Jurajov dvor,48.1830749511719,17.1639213562012,100
000000013300001,Jurajov dvor,48.1823883056641,17.1618347167969,100
000000061600002,PPA Controll,48.1852493286133,17.1701126098633,101
000000061600001,PPA Controll,48.1850280761719,17.1692218780518,101
000000034100002,Shopping Palace,48.1883087158203,17.1774082183838,101
000000034100001,Shopping Palace,48.187858581543,17.1763916015625,101
000000049700002,Zlaté piesky,48.1894683837891,17.1830825805664,101
000000049700001,Zlaté piesky,48.1894989013672,17.182674407959,101
000000030200002,Poštová - Martinus,48.1471862792969,17.1097564697266,100
000000047300002,Vysoká,48.1487884521484,17.1131038665771,100
000000043900001,Chatam Sófer,48.1411933898926,17.0921497344971,100
000000043900002,Chatam Sófer,48.1414070129395,17.0920848846436,100
000000026100001,Most SNP,48.1397247314453,17.105260848999,100
000000026100002,Most SNP,48.1398468017578,17.1050148010254,100
000000043700004,Trnavské mýto,48.1577911376953,17.127571105957,100
000000048200002,Saleziáni,48.1551551818848,17.1337833404541,100
000000048200001,Saleziáni,48.1556205749512,17.1334781646729,100
000000023400002,SLOVANET,48.1559448242188,17.1423244476318,100
000000023400001,SLOVANET,48.1559181213379,17.141809463501,100
000000030800002,Nemocnica Ružinov,48.1567153930664,17.1522598266602,100
000000030800001,Nemocnica Ružinov,48.1567802429199,17.1518516540527,100
000000009200002,Herlianska - OC RETRO,48.1570281982422,17.1563415527344,100
000000009200001,Herlianska - OC RETRO,48.1570701599121,17.1559925079346,100
000000043200002,Tomášikova,48.1574325561523,17.161792755127,100
000000043200001,Tomášikova,48.1574363708496,17.1609230041504,100
000000039100002,Súmračná,48.157886505127,17.1677513122559,100
000000039100001,Súmračná,48.1579132080078,17.1674785614014,100
000000011500002,Chlumeckého,48.1582374572754,17.1726322174072,100
000000011500001,Chlumeckého,48.1582717895508,17.1722736358643,100
000000000600002,Astronomická,48.1585731506348,17.1771125793457,100
000000000600001,Astronomická,48.158561706543,17.1763248443604,100
000000009300007,Hlavná stanica,48.157356262207,17.1062164306641,100
000000009300008,Hlavná stanica,48.1579933166504,17.1062717437744,100
000000030600004,Nám. Franza Liszta,48.1556167602539,17.1088676452637,100
000000014400001,Karpatská,48.1568183898926,17.1139698028564,100
000000014400002,Karpatská,48.1564292907715,17.1124706268311,100
000000033200004,Račianske mýto,48.1577415466309,17.1217498779297,100
000000033200003,Račianske mýto,48.1578216552734,17.1194705963135,100
000000043700006,Trnavské mýto,48.1580619812012,17.1268329620361,100
000000043700005,Trnavské mýto,48.1582298278809,17.1264724731445,100
000000048200006,Saleziáni,48.1549987792969,17.1339073181152,100
000000048200005,Saleziáni,48.155101776123,17.1339836120605,100
000000058200004,Trhovisko,48.1521148681641,17.1374435424805,100
000000058200001,Trhovisko,48.1535415649414,17.135929107666,100
000000043600001,Trenčianska,48.1510124206543,17.1390361785889,100
000000022200002,BBC1Plus-Miletičova,48.1473236083984,17.1422710418701,100
000000022200003,BBC1Plus-Miletičova,48.1475677490234,17.1414947509766,100
000000032500002,Prievozská,48.1489562988281,17.1508922576904,100
000000032500001,Prievozská,48.1486473083496,17.1473255157471,100
000000028500001,Pažítková,48.1494903564453,17.1531295776367,100
000000010400002,Hraničná-OC RETRO,48.1497344970703,17.159330368042,100
000000010400001,Hraničná-OC RETRO,48.1498565673828,17.1589393615723,100
000000008200002,Gagarinova,48.1501884460449,17.1672325134277,100
000000008200001,Gagarinova,48.150218963623,17.1655158996582,100
000000002300002,Brodná,48.1505470275879,17.17258644104,100
000000002300001,Brodná,48.1506042480469,17.1716747283936,100
000000027100002,Ondrejovova,48.1507263183594,17.1758899688721,100
000000027100001,Ondrejovova,48.1507987976074,17.1749897003174,100
000000033800002,Ríbezľová,48.1468124389648,17.1850852966309,100
000000033800001,Ríbezľová,48.1470184326172,17.1852989196777,100
000000003200004,Cintorín Vrakuňa,48.1425247192383,17.1905994415283,100
000000003200003,Cintorín Vrakuňa,48.1428146362305,17.1905899047852,100
000000032100002,Priekopnícka,48.1369972229004,17.1958236694336,101
000000032100001,Priekopnícka,48.1371192932129,17.1950721740723,101
000000015500002,Komárovská,48.1368751525879,17.2027778625488,101
000000015500001,Komárovská,48.1370544433594,17.2010231018066,101
000000043400002,Toryská,48.1360359191895,17.2055015563965,101
000000043400001,Toryská,48.1363792419434,17.2053089141846,101
000000010700002,Hronská,48.135856628418,17.2093868255615,101
000000010700001,Hronská,48.135814666748,17.2088375091553,101
000000007100002,Dudvážska,48.1377983093262,17.2138595581055,101
000000007100001,Dudvážska,48.1376609802246,17.2131519317627,101
000000051200001,Žitavská,48.1418418884277,17.2143268585205,101
000000004200002,Čiližská,48.1439666748047,17.212818145752,101
000000004200001,Čiližská,48.1444931030273,17.2123203277588,101
000000003300003,Cintorínska,48.1479835510254,17.1210117340088,100
000000033600002,Rajská,48.1463851928711,17.1168594360352,100
000000033600001,Rajská,48.1461791992188,17.1162853240967,100
000000044400002,Ul. 29. augusta,48.146656036377,17.1225414276123,100
000000003300001,Cintorínska,48.1476936340332,17.1208305358887,100
000000000500002,Autobusová stanica,48.1461791992188,17.1267204284668,100
000000000500001,Autobusová stanica,48.1463661193848,17.1266021728516,100
000000039300003,Svätoplukova,48.1458778381348,17.130823135376,100
000000016000002,Košická,48.1453857421875,17.1331405639648,100
000000025800002,Novohradská,48.1460647583008,17.1372776031494,100
000000025800001,Novohradská,48.1462478637695,17.1372928619385,100
000000022200001,BBC1Plus-Miletičova,48.1471290588379,17.1408176422119,100
000000006900003,Búdková,48.1528511047363,17.0915298461914,100
000000006900002,Búdková,48.1529541015625,17.0915622711182,100
000000006900004,Búdková,48.1529312133789,17.091625213623,100
000000003800001,Červený kríž,48.1496162414551,17.0902309417725,100
000000003800002,Červený kríž,48.1496162414551,17.090295791626,100
000000012300001,Jančova,48.1481437683105,17.0891361236572,100
000000010900002,Hummelova,48.1474266052246,17.089298248291,100
000000033500001,Radvanská,48.1460380554199,17.0916576385498,100
000000033500002,Radvanská,48.1462364196777,17.0913352966309,100
000000011900001,Inovecká,48.1450271606445,17.0941352844238,100
000000011900002,Inovecká,48.1450080871582,17.0942649841309,100
000000010100001,Hrad,48.1424102783203,17.0972156524658,100
000000010100002,Hrad,48.1429977416992,17.0962238311768,100
000000048600001,Zámocká,48.143611907959,17.0986633300781,100
000000048600002,Zámocká,48.1435394287109,17.0985145568848,100
000000028200001,Partizánska,48.1460380554199,17.0992546081543,100
000000028200002,Partizánska,48.1460151672363,17.0991687774658,100
000000016300001,Kozia,48.1482429504395,17.1011428833008,100
000000016300002,Kozia,48.1481781005859,17.100959777832,100
000000009500001,Hodžovo nám.,48.1481018066406,17.1082096099854,100
000000009500002,Hodžovo nám.,48.1485290527344,17.1084003448486,100
000000025000002,Nám. slobody,48.1511421203613,17.1105728149414,100
000000025000001,Nám. slobody,48.1510620117188,17.11061668396,100
000000041100002,Štefanovičova,48.153694152832,17.1106204986572,100
000000041100001,Štefanovičova,48.1538238525391,17.1106643676758,100
000000039600002,Šancová,48.156925201416,17.1133403778076,100
000000039600001,Šancová,48.1571006774902,17.1133136749268,100
000000044000002,Tupého,48.1609954833984,17.1147518157959,100
000000044000001,Tupého,48.1612281799316,17.1146717071533,100
000000012900002,Jeséniova,48.1655502319336,17.1137962341309,100
000000012900001,Jeséniova,48.1654090881348,17.1138019561768,100
000000004500002,Čremchová,48.1682929992676,17.1115913391113,100
000000004500001,Čremchová,48.1682434082031,17.1115550994873,100
000000011000002,Husova,48.1697273254395,17.1078472137451,100
000000011000001,Husova,48.1696510314941,17.1078090667725,100
000000015100002,Koliba,48.1711006164551,17.1028804779053,100
000000015100001,Koliba,48.1711921691895,17.1024932861328,100
000000000300005,Americké nám.,48.1509971618652,17.1182231903076,100
000000033300001,Rádiová,48.1742286682129,17.1661701202393,100
000000033300002,Rádiová,48.1741905212402,17.1664009094238,100
000000002600001,Bulharská,48.1721801757813,17.168399810791,100
000000002600002,Bulharská,48.1715888977051,17.1681594848633,100
000000037300001,Spoločenská,48.1704597473145,17.1656494140625,100
000000037300002,Spoločenská,48.1702003479004,17.1653099060059,100
000000008800001,Hanácka,48.1689605712891,17.1613636016846,100
000000008800002,Hanácka,48.1689414978027,17.1612663269043,100
000000036100001,Slovinská,48.1694564819336,17.1578235626221,100
000000036100002,Slovinská,48.169864654541,17.1585426330566,100
000000011700001,Trnavská,48.1651268005371,17.14967918396,100
000000011700002,Trnavská,48.1649894714355,17.1498622894287,100
000000034700001,Sabinovská,48.163387298584,17.1453342437744,100
000000034700002,Sabinovská,48.163501739502,17.1461811065674,100
000000000800001,Bajkalská,48.1616134643555,17.1411819458008,100
000000000800002,Bajkalská,48.1616287231445,17.1416435241699,100
000000049500001,Zimný štadión,48.1590995788574,17.1348304748535,100
000000049500002,Zimný štadión,48.1593437194824,17.1359462738037,100
000000035100004,SAV,48.1553726196289,17.1066570281982,100
000000036800002,Sokolská,48.1591835021973,17.104377746582,100
000000036800001,Sokolská,48.1581840515137,17.1045532226563,100
000000038800002,Stromová,48.1638107299805,17.0979881286621,100
000000001100002,Bárdošova,48.1658630371094,17.0945873260498,100
000000001100001,Bárdošova,48.1650199890137,17.0957889556885,100
000000020600002,Magurská,48.1669387817383,17.0928707122803,100
000000020600001,Magurská,48.1664848327637,17.0934391021729,100
000000016400002,Nemocnica Kramáre,48.1677932739258,17.0884170532227,100
000000016400001,Nemocnica Kramáre,48.1675682067871,17.0893688201904,100
000000031500002,Pri Suchom mlyne,48.1677703857422,17.080020904541,100
000000031500001,Pri Suchom mlyne,48.167610168457,17.0806999206543,100
000000011400001,Hýrošova,48.1658897399902,17.078239440918,100
000000045200003,Valašská,48.1660995483398,17.079740524292,100
000000045200001,Valašská,48.1661491394043,17.0787696838379,100
000000049500003,Zimný štadión,48.1587295532227,17.1354312896729,100
000000048200003,Saleziáni,48.1548080444336,17.1336193084717,100
000000048200004,Saleziáni,48.15478515625,17.1338558197021,100
000000017900001,Kvačalova,48.1542816162109,17.129487991333,100
000000017900002,Kvačalova,48.1541862487793,17.1294765472412,100
000000017700002,Kulíškova,48.1519012451172,17.1293487548828,100
000000017700001,Kulíškova,48.1519584655762,17.129467010498,100
000000028000002,Cvernovka,48.1482009887695,17.1306476593018,100
000000028000001,Cvernovka,48.1482429504395,17.1307754516602,100
000000039300001,Svätoplukova,48.1463661193848,17.1314945220947,100
000000039200001,NÚSCH,48.1694755554199,17.0886859893799,100
000000039200002,NÚSCH,48.1695327758789,17.0886116027832,100
000000045900003,Vlárska,48.1693649291992,17.0906505584717,100
000000045900004,Vlárska,48.16943359375,17.0904941558838,100
000000035100001,SAV,48.1539611816406,17.1061153411865,100
000000035100002,SAV,48.1547889709473,17.106201171875,100
000000015200001,Kollárovo nám.,48.1492805480957,17.1127071380615,100
000000015200002,Kollárovo nám.,48.1499710083008,17.1129283905029,100
000000040300001,Špitálska,48.1492156982422,17.1186637878418,100
000000040300002,Špitálska,48.1492881774902,17.1185760498047,100
000000000500004,Autobusová stanica,48.147346496582,17.1260223388672,100
000000000500003,Autobusová stanica,48.1471252441406,17.1264095306396,100
000000046200001,Vojenská nemocnica,48.1717147827148,17.0737457275391,100
000000046200002,Vojenská nemocnica,48.1715545654297,17.0735263824463,100
000000028400001,Patrónka,48.1684112548828,17.0767230987549,100
000000028400002,Patrónka,48.1691284179688,17.0760841369629,100
000000019800001,Lovinského,48.1625366210938,17.081958770752,100
000000019800004,Lovinského,48.1626777648926,17.0819492340088,100
000000000400001,Vozovňa Hroboňova,48.159782409668,17.0863361358643,100
000000000400002,Vozovňa Hroboňova,48.1598815917969,17.0863361358643,100
000000009900001,Horský park,48.1557884216309,17.0885677337646,100
000000009900002,Horský park,48.1559028625488,17.0886211395264,100
000000006900001,Búdková,48.1527328491211,17.0916805267334,100
000000021700002,Mickiewiczova,48.1502265930176,17.1163673400879,100
000000014200002,Karadžičova,48.1535491943359,17.1247940063477,100
000000014200001,Karadžičova,48.1535530090332,17.1246871948242,100
000000034500002,Ružová dolina,48.1517944335938,17.139820098877,100
000000034500001,Ružová dolina,48.1514625549316,17.1389083862305,100
000000022500004,Mliekárenská,48.1536331176758,17.1451416015625,100
000000022500003,Mliekárenská,48.1536102294922,17.1445827484131,100
000000041500001,Šulekova,48.1487274169922,17.098258972168,100
000000041500002,Šulekova,48.1487274169922,17.0982551574707,100
000000010400004,Hraničná-OC RETRO,48.1489448547363,17.1584606170654,100
000000010400003,Hraničná-OC RETRO,48.149055480957,17.1582622528076,100
000000014700002,MiÚ Ružinov,48.1491661071777,17.1621475219727,100
000000014700001,MiÚ Ružinov,48.1492156982422,17.1620178222656,100
000000014500002,Kaštieľska,48.1493339538574,17.1673221588135,100
000000014500001,Kaštieľska,48.149227142334,17.1658802032471,100
000000033400002,Radničné nám.,48.1498756408691,17.1716747283936,100
000000033400001,Radničné nám.,48.1499328613281,17.17160987854,100
000000038600002,Strojnícka,48.1485443115234,17.1772212982178,100
000000038600001,Strojnícka,48.1486434936523,17.1772747039795,100
000000032400002,Prievoz-most,48.1455612182617,17.1861743927002,100
000000032400001,Prievoz-most,48.1458969116211,17.1849555969238,100
000000003200002,Cintorín Vrakuňa,48.1433944702148,17.1905899047852,100
000000003200001,Cintorín Vrakuňa,48.1437034606934,17.1907596588135,100
000000025200002,Nár. onkolog. ústav,48.1720542907715,17.0912609100342,100
000000025200001,Nár. onkolog. ústav,48.172233581543,17.0914535522461,100
000000014900002,Klenová,48.1709938049316,17.093578338623,100
000000014900001,Klenová,48.1709136962891,17.0936851501465,100
000000045900002,Vlárska,48.1696968078613,17.0910205841064,100
000000045900001,Vlárska,48.1692848205566,17.0910472869873,100
000000033200005,Račianske mýto,48.1569519042969,17.1213397979736,100
000000033200006,Račianske mýto,48.1573181152344,17.1208000183105,100
000000017300001,Krížna,48.1550216674805,17.1250514984131,100
000000017300002,Krížna,48.1544723510742,17.1255779266357,100
000000040200001,Šoltésovej,48.1506538391113,17.1254749298096,100
000000040200002,Šoltésovej,48.1509399414063,17.1257286071777,100
000000022800002,Mlynské nivy,48.1480560302734,17.1246395111084,100
000000000500005,Autobusová stanica,48.1468048095703,17.1263332366943,100
000000004600001,Wüstenrot,48.1438789367676,17.122579574585,100
000000004600002,Wüstenrot,48.1446647644043,17.123420715332,100
000000060700004,Nové SND,48.1414947509766,17.1221466064453,100
000000060700003,Nové SND,48.1412925720215,17.1220588684082,100
000000049500004,Zimný štadión,48.1584053039551,17.1355609893799,100
000000017500001,Kuklovská,48.1569557189941,17.045051574707,100
000000017500002,Kuklovská,48.1569557189941,17.045223236084,100
000000050300001,ZŠ Majerníkova,48.1541481018066,17.0458240509033,100
000000050300002,ZŠ Majerníkova,48.1541709899902,17.046028137207,100
000000021200001,Matejkova,48.1519012451172,17.0482921600342,100
000000021200002,Matejkova,48.151985168457,17.0480136871338,100
000000043100001,Tománkova,48.1512489318848,17.0516185760498,100
000000043100002,Tománkova,48.1513061523438,17.0517902374268,100
000000008900001,Hany Meličkovej,48.1495590209961,17.0537109375,100
000000008900002,Hany Meličkovej,48.1496467590332,17.0535068511963,100
000000031300001,Pri podchode,48.1493949890137,17.0562534332275,100
000000031300002,Pri podchode,48.1494445800781,17.0563507080078,100
000000012400001,Janotova,48.1495018005371,17.0583667755127,100
000000012400002,Janotova,48.1495475769043,17.0582065582275,100
000000023000003,Molecova,48.14990234375,17.0622615814209,100
000000023000006,Molecova,48.1499671936035,17.0620784759521,100
000000045200002,Valašská,48.1653213500977,17.0801258087158,100
000000019800005,Lovinského,48.1625366210938,17.081958770752,100
000000019800006,Lovinského,48.1626777648926,17.0819492340088,100
000000000400003,Vozovňa Hroboňova,48.1604690551758,17.0863094329834,100
000000000400004,Vozovňa Hroboňova,48.1607208251953,17.08669090271,100
000000033000001,Prokopa Veľkého,48.1631202697754,17.0886096954346,100
000000010600001,Hroboňova,48.1630401611328,17.091760635376,100
000000010600002,Hroboňova,48.1633186340332,17.0921497344971,100
000000012800001,Jelačičova,48.1568832397461,17.1305923461914,100
000000012800002,Jelačičova,48.1569976806641,17.130786895752,100
000000050500001,Žatevná,48.1887283325195,17.0286426544189,101
000000050500002,Žatevná,48.1888809204102,17.0288848876953,101
000000028800001,Pekníkova,48.1898803710938,17.0334014892578,101
000000028800002,Pekníkova,48.1897888183594,17.0326709747314,101
000000026500004,OD Saratov,48.1922264099121,17.0351543426514,101
000000026500003,OD Saratov,48.1915740966797,17.0349502563477,101
000000031000006,Pri kríži,48.195873260498,17.0338935852051,101
000000031000003,Pri kríži,48.1942863464355,17.0338821411133,101
000000008100002,Agátová,48.2000389099121,17.0319194793701,101
000000008100001,Agátová,48.2006759643555,17.0316467285156,101
000000070000001,Bory Mall,48.2035903930664,17.031810760498,101
000000070000002,Bory Mall,48.2036666870117,17.0324878692627,101
000000026300001,Lamač-Staré záhrady,48.1992225646973,17.0446071624756,101
000000026300002,Lamač-Staré záhrady,48.1992492675781,17.0448112487793,101
000000000900002,Bakošova,48.1964797973633,17.0496273040771,101
000000000900001,Bakošova,48.1972274780273,17.0485439300537,101
000000029600002,Podháj,48.1956214904785,17.0522079467773,101
000000029600001,Podháj,48.1950798034668,17.0529727935791,101
000000038900002,Studenohorská,48.1939506530762,17.0564575195313,101
000000038900001,Studenohorská,48.1940155029297,17.0568084716797,101
000000014800002,Klanec,48.1927032470703,17.0584659576416,101
000000014800001,Klanec,48.1928749084473,17.0585174560547,101
000000018300002,Lamač,48.1921043395996,17.0530395507813,101
000000018300001,Lamač,48.1922378540039,17.0530014038086,101
000000022900002,Mokrohájska,48.173641204834,17.0679092407227,100
000000022900001,Mokrohájska,48.1731414794922,17.068359375,100
000000057400002,TESCO Lamač,48.1765174865723,17.0653896331787,101
000000057400001,TESCO Lamač,48.1763305664063,17.0658073425293,101
000000032300002,Pod Zečákom,48.1860656738281,17.0533714294434,101
000000032300001,Pod Zečákom,48.1859970092773,17.0535984039307,101
000000035200002,Segnáre,48.1862106323242,17.0528812408447,101
000000035200001,Segnáre,48.1859741210938,17.0529823303223,101
000000018500002,Lediny,48.1898040771484,17.0474262237549,101
000000029500001,Pod násypom,48.1898040771484,17.0474262237549,101
000000046900004,Vrančovičova,48.1937561035156,17.0473804473877,101
000000046900001,Vrančovičova,48.1939239501953,17.046537399292,101
000000018100003,Lafranconi,48.1447944641113,17.0785961151123,100
000000018100004,Lafranconi,48.1450309753418,17.078670501709,100
000000026100003,Most SNP,48.1396713256836,17.1058197021484,100
000000026100004,Most SNP,48.1399383544922,17.1043090820313,100
000000020800001,Malá scéna,48.1418113708496,17.1190547943115,100
000000020800002,Malá scéna,48.1416358947754,17.1181735992432,100
000000060700002,Nové SND,48.1408843994141,17.1207752227783,100
000000060700001,Nové SND,48.1408729553223,17.1209259033203,100
000000035700003,Cintorín Slávičie údolie,48.1579322814941,17.0686073303223,100
000000035700001,Cintorín Slávičie údolie,48.1582641601563,17.0682487487793,100
000000066200001,Internáty B,48.159595489502,17.0695114135742,100
000000066200002,Internáty B,48.1595153808594,17.0693798065186,100
000000066300001,Konvalinková,48.1608619689941,17.0695705413818,100
000000066300002,Konvalinková,48.1608276367188,17.0694999694824,100
000000065700001,Vretenová,48.1620140075684,17.0657615661621,100
000000065700002,Vretenová,48.1619606018066,17.0657825469971,100
000000065800001,Na Sitine,48.161750793457,17.0612125396729,100
000000065800002,Na Sitine,48.1617431640625,17.0612659454346,100
000000066400001,Nad vinicami,48.1605567932129,17.0611610412598,100
000000066400002,Nad vinicami,48.1605567932129,17.0612373352051,100
000000065900001,Nad internátmi,48.1591377258301,17.0626316070557,100
000000065900002,Nad internátmi,48.1591453552246,17.0626850128174,100
000000066100001,Grunty,48.1564521789551,17.064245223999,100
000000066100002,Grunty,48.1564521789551,17.0643100738525,100
000000066000001,Panoráma,48.1544609069824,17.065034866333,100
000000066000002,Panoráma,48.1545028686523,17.0650939941406,100
000000065600002,Hájnická,48.1506423950195,17.064380645752,100
000000013400004,Jurigovo nám.,48.1529273986816,17.0619010925293,100
000000023000004,Molecova,48.1508903503418,17.062442779541,100
000000056200001,Stará vinárska,48.1528015136719,17.0977249145508,100
000000056200002,Stará vinárska,48.1526908874512,17.0968990325928,100
000000056300001,Slavín,48.1523056030273,17.1005420684814,100
000000056300002,Slavín,48.1522674560547,17.1002521514893,100
000000056400004,Havlíčkova,48.1541404724121,17.100284576416,100
000000058400002,Kalvária,0,0,100
000000058400001,Kalvária,48.1576881408691,17.0977401733398,100
000000056400001,Havlíčkova,48.1535606384277,17.1017646789551,100
000000056400002,Havlíčkova,48.1536865234375,17.1016635894775,100
000000056500001,Mišíkova,48.1514053344727,17.1015453338623,100
000000056500002,Mišíkova,48.1513977050781,17.101598739624,100
000000056600001,Donovalova,48.1513328552246,17.0987606048584,100
000000056600002,Donovalova,48.1513595581055,17.0989856719971,100
000000050000003,Zochova,48.1461868286133,17.1041736602783,100
000000009500004,Hodžovo nám.,48.1490364074707,17.1071071624756,100
000000026600003,OD Slimák,48.1703834533691,17.1286182403564,100
000000026600001,OD Slimák,48.1701622009277,17.1285381317139,100
000000017600001,Kukučínova,48.1729507446289,17.1293106079102,100
000000042000001,Tehelná,48.164379119873,17.1276950836182,100
000000029300004,Pionierska,48.1703910827637,17.1272430419922,100
000000029300003,Pionierska,48.1703834533691,17.1269073486328,100
000000035900002,Sliačska,48.172664642334,17.125862121582,100
000000035900001,Sliačska,48.1725845336914,17.1259250640869,100
000000059200002,Briežky,48.1741714477539,17.1193981170654,100
000000027200002,Krahulčia,48.1749305725098,17.1167049407959,100
000000019700001,Lopenícka,48.1757164001465,17.1168594360352,100
000000026100009,Most SNP,48.1406326293945,17.1043128967285,100
000000026100007,Most SNP,48.1411018371582,17.104097366333,100
000000039000004,AUPARK,48.1333694458008,17.1046390533447,100
000000039000003,AUPARK,48.1334075927734,17.1048755645752,100
000000007400002,Dvory,48.1283302307129,17.1047744750977,100
000000007400001,Dvory,48.128490447998,17.1051445007324,100
000000051700006,ŽST Petržalka,48.1205406188965,17.0999565124512,100
000000051700005,ŽST Petržalka,48.1209869384766,17.1007614135742,100
000000015300002,Kolmá,48.1136207580566,17.0959548950195,100
000000015300003,Kolmá,48.1137733459473,17.0962924957275,100
000000024100002,Nákupná zóna Lúky,48.1050300598145,17.0953807830811,100
000000024100001,Nákupná zóna Lúky,48.1056289672852,17.0957145690918,100
000000012700002,Jasovská,48.0937652587891,17.1185264587402,100
000000012700001,Jasovská,48.0939903259277,17.1179542541504,100
000000069100002,Slnečnice,48.0879974365234,17.1233940124512,100
000000069100001,Slnečnice,48.0879135131836,17.1237373352051,100
000000012600002,Jarovce-záhrady,48.0775527954102,17.1254138946533,101
000000012600001,Jarovce-záhrady,48.0776710510254,17.1257591247559,101
000000038500002,Strelnica,48.0728034973145,17.1189441680908,101
000000038500001,Strelnica,48.0729026794434,17.1190967559814,101
000000029200002,Píla,48.070011138916,17.1169662475586,101
000000029200001,Píla,48.0699653625488,17.1170310974121,101
000000012500002,Jarovce,48.066234588623,17.1143436431885,101
000000012500001,Jarovce,48.0663108825684,17.1145439147949,101
000000034900002,Sady,48.0639572143555,17.117338180542,101
000000034900001,Sady,48.0640411376953,17.1172733306885,101
000000016100002,Kovácsova,48.0577735900879,17.1388492584229,101
000000016100001,Kovácsova,48.057933807373,17.1386642456055,101
000000047600002,Vývojová,48.0560073852539,17.1442718505859,101
000000047600001,Vývojová,48.0560493469238,17.1443252563477,101
000000034200002,Gerulata,48.0542221069336,17.1467151641846,101
000000034200001,Gerulata,48.0540313720703,17.1471290588379,101
000000049200002,Kaštieľ Rusovce,48.0511283874512,17.1500606536865,101
000000049200001,Kaštieľ Rusovce,48.0507316589355,17.1505699157715,101
000000051800002,ŽST Rusovce,48.0467681884766,17.1521625518799,101
000000051800001,ŽST Rusovce,48.0468673706055,17.1520729064941,101
000000050100001,Pri Habánskom mlyne,48.1632232666016,17.076114654541,100
000000050100002,Pri Habánskom mlyne,48.1639022827148,17.0764236450195,100
000000035800001,ZOO,48.1546173095703,17.0757312774658,100
000000035800002,ZOO,48.1541290283203,17.0768737792969,100
000000007600001,Einsteinova,48.1316299438477,17.1004505157471,100
000000007600002,Einsteinova,48.1321983337402,17.0986042022705,100
000000008700002,Hálova,48.1237525939941,17.1077575683594,100
000000008700001,Hálova,48.1239700317383,17.1072521209717,100
000000013200002,Jungmannova,48.1236152648926,17.1115283966064,100
000000013200001,Jungmannova,48.1238136291504,17.1104717254639,100
000000024600002,Nám. hraničiarov,48.1210021972656,17.1175956726074,100
000000024600001,Nám. hraničiarov,48.1221046447754,17.1169834136963,100
000000010500002,Hrobákova,48.118824005127,17.1144599914551,100
000000010500001,Hrobákova,48.1188507080078,17.116096496582,100
000000034000002,Romanova,48.1178512573242,17.1108436584473,100
000000034000001,Romanova,48.1179656982422,17.1111431121826,100
000000002200002,Bradáčova,48.1146125793457,17.112268447876,100
000000002200001,Bradáčova,48.114185333252,17.1125144958496,100
000000042600004,TECHNOPOL,48.1106414794922,17.1112461090088,100
000000042600001,TECHNOPOL,48.1111106872559,17.1122627258301,100
000000043300002,Topoľčianska,48.1099128723145,17.1080627441406,100
000000043300001,Topoľčianska,48.1095275878906,17.1082153320313,100
000000039900004,Šintavská,48.1052513122559,17.1077537536621,100
000000039900001,Šintavská,48.1067161560059,17.1079921722412,100
000000038400002,Strečnianska,48.1028099060059,17.1076526641846,100
000000038400001,Strečnianska,48.1033630371094,17.1077919006348,100
000000020000002,Lúčanka,48.0989990234375,17.109167098999,100
000000020000001,Lúčanka,48.0996055603027,17.1092662811279,100
000000019900002,Ľubovnianska,48.0990829467773,17.1140060424805,100
000000019900001,Ľubovnianska,48.0992889404297,17.1142845153809,100
000000002900002,Bzovícka,48.0994834899902,17.1175003051758,100
000000002900001,Bzovícka,48.0993919372559,17.1177711486816,100
000000063100002,Betliarska,48.0992202758789,17.1235866546631,100
000000063100001,Betliarska,48.0993499755859,17.1223526000977,100
000000006100002,Vozovňa Petržalka,48.0988960266113,17.125301361084,100
000000006100001,Vozovňa Petržalka,48.098991394043,17.1254024505615,100
000000052700001,Prokofievova,48.1157417297363,17.1020240783691,100
000000052700002,Prokofievova,48.1159477233887,17.1021518707275,100
000000021000001,Markova,48.1173324584961,17.1064796447754,100
000000021000002,Markova,48.1174507141113,17.105052947998,100
000000037600001,Starohájska,48.1201133728027,17.1196842193604,100
000000037600002,Starohájska,48.1197052001953,17.1178607940674,100
000000018200001,Lachova,48.1250839233398,17.1211566925049,100
000000018200002,Lachova,48.1244583129883,17.1202507019043,100
000000002000001,Bosákova,48.1275825500488,17.1256542205811,100
000000002000002,Bosákova,48.1268882751465,17.1243896484375,100
000000032800001,Prístavný most,48.1451416015625,17.1513614654541,100
000000032800002,Prístavný most,48.1444053649902,17.1512699127197,100
000000032500004,Prievozská,48.1482391357422,17.1496849060059,100
000000025500001,Nevädzová-OC RETRO,48.1522483825684,17.1643886566162,100
000000025500002,Nevädzová-OC RETRO,48.1523246765137,17.1641159057617,100
000000026400001,DK Ružinov,48.1565551757813,17.1631927490234,100
000000026400002,DK Ružinov,48.1553497314453,17.1632251739502,100
000000021400001,Maximiliána Hella,48.1592712402344,17.162389755249,100
000000021400002,Maximiliána Hella,48.1601715087891,17.1620101928711,100
000000008400002,Haburská,48.1635894775391,17.1541309356689,100
000000008400001,Haburská,48.1630630493164,17.1555690765381,100
000000011700003,Trnavská,48.166431427002,17.1501502990723,100
000000011700004,Trnavská,48.1646118164063,17.1509456634521,100
000000051500007,ŽST Nové Mesto,48.1711921691895,17.1461124420166,100
000000051500003,ŽST Nové Mesto,48.1710243225098,17.1464729309082,100
000000051500004,ŽST Nové Mesto,48.1711883544922,17.1465797424316,100
000000000700001,Opletalova,48.2324829101563,16.9822292327881,101
000000000700002,Opletalova,48.2320671081543,16.9824333190918,101
000000055400001,Paulinské,48.2290267944336,16.9803676605225,101
000000055400002,Paulinské,48.2294158935547,16.9806365966797,101
000000038700001,Panské,48.225772857666,16.9790000915527,101
000000038700002,Panské,48.2257423400879,16.9790859222412,101
000000002800001,Bystrická,48.2236061096191,16.9783039093018,101
000000002800002,Bystrická,48.2235527038574,16.9783344268799,101
000000051300001,ŽST Dev. Nová Ves,48.2201690673828,16.9777736663818,101
000000051300002,ŽST Dev. Nová Ves,48.2199516296387,16.9778709411621,101
000000022700001,Mlynská,48.2165794372559,16.9757976531982,101
000000022700002,Mlynská,48.2167892456055,16.9768486022949,101
000000025900001,Novoveská,48.2117309570313,16.9732494354248,101
000000025900002,Novoveská,48.2117309570313,16.9733142852783,101
000000010200001,Hradištná,48.2071075439453,16.9740333557129,101
000000010200002,Hradištná,48.2066650390625,16.9748287200928,101
000000022100001,Milana Marečka,48.2058067321777,16.9794635772705,101
000000022100002,Milana Marečka,48.2058372497559,16.9779262542725,101
000000041000001,Štefana Králika,48.2059326171875,16.9844932556152,101
000000041000002,Štefana Králika,48.2059631347656,16.9827270507813,101
000000045300001,Vápenka,48.2058715820313,16.9961490631104,101
000000045300002,Vápenka,48.205924987793,16.9961128234863,101
000000017400001,Krpáš,48.205207824707,17.007791519165,101
000000017400002,Krpáš,48.2052421569824,17.0077209472656,101
000000030100001,Kamenáče,48.2056503295898,17.013111114502,101
000000030100002,Kamenáče,48.2056541442871,17.0129413604736,101
000000069400001,Bory-rázcestie,48.2055511474609,17.0169334411621,101
000000069400002,Bory-rázcestie,48.2057914733887,17.0162315368652,101
000000042400001,Technické sklo,48.201301574707,17.0148754119873,101
000000006800003,Drobného,48.1879348754883,17.0364055633545,101
000000006800004,Drobného,48.1886558532715,17.0365715026855,101
000000000100003,Alexyho,48.1847496032715,17.0376644134521,101
000000000100004,Alexyho,48.1860046386719,17.0376377105713,101
000000041800003,Švantnerova,48.1817474365234,17.0403804779053,101
000000041800004,Švantnerova,48.1824722290039,17.0400085449219,101
000000005100003,Damborského,48.1794700622559,17.0433406829834,101
000000005100004,Damborského,48.1795387268066,17.0438346862793,101
000000019300001,Lipského,48.1784820556641,17.0516929626465,101
000000019300002,Lipského,48.1783599853516,17.0505504608154,101
000000038200001,Húščavova,48.1789512634277,17.0549545288086,101
000000038200002,Húščavova,48.179069519043,17.0547027587891,101
000000000500006,Autobusová stanica,48.1474800109863,17.1249923706055,100
000000023700002,Na hriadkach,48.2046966552734,16.970760345459,101
000000023700001,Na hriadkach,48.2045516967773,16.9705562591553,101
000000017100002,Kremencová,48.219539642334,16.9788284301758,101
000000017100001,Kremencová,48.2195739746094,16.9787044525146,101
000000063500002,Zamajerské,48.2227058410645,16.9850673675537,101
000000063500001,Zamajerské,48.2222137451172,16.98388671875,101
000000047100002,Jána Jonáša - VW,48.2253608703613,16.9913177490234,101
000000047100001,Jána Jonáša - VW,48.2256507873535,16.9921207427979,101
000000046900002,Vrančovičova,48.1941299438477,17.0467529296875,101
000000009400001,Hodonínska,48.188304901123,17.0466537475586,101
000000048500001,ŽST Lamač,48.1851348876953,17.0490818023682,101
000000001500001,Bilíkova,48.1862335205078,17.0423812866211,101
000000023900002,Na vrátkach,48.1849021911621,17.0468330383301,101
000000000100006,Alexyho,48.1856307983398,17.0396976470947,101
000000069400004,Bory-rázcestie,48.2067222595215,17.0169525146484,101
000000069400003,Bory-rázcestie,48.2062072753906,17.0171546936035,101
000000067000002,Veľkolúcky potok,48.2122497558594,17.0126934051514,101
000000067000001,Veľkolúcky potok,48.2119255065918,17.0128326416016,101
000000004300002,ČOV-Dev. Nová Ves,48.2214736938477,17.0057849884033,101
000000004300001,ČOV-Dev. Nová Ves,48.221248626709,17.0058498382568,101
000000035400002,Jána Jonáša,48.2270927429199,16.9971046447754,101
000000035400001,Jána Jonáša,48.227123260498,16.997522354126,101
000000053100002,Vápencová,48.2147979736328,16.9811038970947,101
000000053100004,Vápencová,48.2147979736328,16.9811038970947,101
000000031600002,Rakyta,48.2154998779297,16.9836235046387,101
000000031600001,Rakyta,48.2154922485352,16.9834098815918,101
000000037000002,Mláka,48.2176399230957,16.9910640716553,101
000000037000001,Mláka,48.2176246643066,16.9907321929932,101
000000057200001,Volkswagen,48.2366600036621,16.9907054901123,101
000000057200002,Volkswagen,48.23681640625,16.9905757904053,101
000000000100009,Alexyho,48.185474395752,17.0351486206055,101
000000068000002,Vendelínska,48.1861877441406,17.0333595275879,101
000000068000001,Vendelínska,48.1862831115723,17.0330066680908,101
000000067900002,Tulipánová,48.187572479248,17.0312786102295,101
000000067900001,Tulipánová,48.1877326965332,17.0311508178711,101
000000041200004,Štepná,48.1910285949707,17.0276622772217,101
000000041200003,Štepná,48.1909675598145,17.0278167724609,101
000000067700001,Tranovského,48.1916122436523,17.0250549316406,101
000000067600001,Tranovského II.,48.1931648254395,17.0249080657959,101
000000067800001,Cabanova II.,48.1915626525879,17.0262985229492,101
000000067500001,Cabanova,48.193775177002,17.0265979766846,101
000000067500002,Cabanova,48.1946105957031,17.0259952545166,101
000000009700002,Homolova,48.1941375732422,17.0288944244385,101
000000009700001,Homolova,48.1942901611328,17.0288562774658,101
000000031000008,Pri kríži,48.1950531005859,17.0326652526855,101
000000031000005,Pri kríži,48.1951675415039,17.0325374603271,101
000000069900002,OC Dubrawa,48.1976928710938,17.0342407226563,101
000000069900001,OC Dubrawa,48.1978988647461,17.0341758728027,101
000000043900006,Chatam Sófer,48.1418952941895,17.0910148620605,100
000000043900005,Chatam Sófer,48.1407699584961,17.0929660797119,100
000000028100004,Park kultúry,48.1431198120117,17.0844058990479,100
000000028100003,Park kultúry,48.1426239013672,17.0856971740723,100
000000002100004,Botanická záhrada,48.148323059082,17.0718803405762,100
000000002100003,Botanická záhrada,48.1479454040527,17.072437286377,100
000000033900002,Vodárenské múzeum,48.1481399536133,17.0632915496826,100
000000033900001,Vodárenské múzeum,48.1481513977051,17.0641174316406,100
000000013500002,Jurigrad,48.1469192504883,17.0528354644775,101
000000013500001,Jurigrad,48.1468467712402,17.0532321929932,101
000000046000002,Sihoť - BVS,48.1488761901855,17.0439395904541,101
000000046000001,Sihoť - BVS,48.1487808227539,17.0440578460693,101
000000013700002,Kadlečík,48.1504821777344,17.0382289886475,101
000000013700001,Kadlečík,48.1503944396973,17.0384864807129,101
000000049800002,Zlaté schody,48.1517105102539,17.0319480895996,101
000000049800001,Zlaté schody,48.1516342163086,17.0322017669678,101
000000008500002,Hájovňa,48.1527786254883,17.0242691040039,101
000000008500001,Hájovňa,48.1528129577637,17.0239486694336,101
000000031700002,Pri záhradách,48.1569480895996,17.0139541625977,101
000000031700001,Pri záhradách,48.1568145751953,17.0143184661865,101
000000026000002,Nový kameňolom,48.1583671569824,17.0079135894775,101
000000026000001,Nový kameňolom,48.1580505371094,17.0085697174072,101
000000037700002,Starý kameňolom,48.1624870300293,17.0007629394531,101
000000037700001,Starý kameňolom,48.1623573303223,17.0008277893066,101
000000047700002,Dolné koruny,48.1657676696777,16.9968032836914,101
000000047700001,Dolné koruny,48.1655883789063,16.9968852996826,101
000000017000002,Kremeľská,48.170482635498,16.9892501831055,101
000000017000001,Kremeľská,48.1702613830566,16.9898090362549,101
000000005700002,Slovanské nábrežie,48.1719017028809,16.9871215820313,101
000000005700001,Slovanské nábrežie,48.1715087890625,16.9871425628662,101
000000024900002,Nám.sv.Cyrila a Metoda,48.1739234924316,16.9861011505127,101
000000024900001,Nám.sv.Cyrila a Metoda,48.1735382080078,16.986364364624,101
000000041300002,Štrbská,48.1771583557129,16.9827651977539,101
000000041300001,Štrbská,48.1771202087402,16.9827346801758,101
000000005600002,Devín,48.1802825927734,16.9798583984375,101
000000005600001,Devín,48.1801414489746,16.9797306060791,101
000000023100002,Morava,48.1879043579102,16.9775562286377,101
000000023100001,Morava,48.187614440918,16.9774971008301,101
000000005800002,Devín-záhrady,48.1932716369629,16.9757328033447,101
000000005800001,Devín-záhrady,48.1926803588867,16.9760112762451,101
000000035000002,Sandberg,48.1978149414063,16.9728527069092,101
000000035000001,Sandberg,48.1978187561035,16.9727878570557,101
000000023700004,Na hriadkach,48.2045783996582,16.970401763916,101
000000012100002,Ivana Bukovčana,48.2080535888672,16.976411819458,101
000000012100001,Ivana Bukovčana,48.2078552246094,16.9758167266846,101
000000023600002,Na Grbe,48.2106437683105,16.9767150878906,101
000000023600001,Na Grbe,48.2107810974121,16.976505279541,101
000000005400002,Uhrovecká,48.2087059020996,16.9726963043213,101
000000005400001,Uhrovecká,48.2085075378418,16.9725894927979,101
000000026100008,Most SNP,48.1406021118164,17.1041297912598,100
000000026100005,Most SNP,48.1407775878906,17.1044845581055,100
000000054500002,Hrad Devín,48.1761894226074,16.9797897338867,101
000000054500001,Hrad Devín,48.1762847900391,16.980094909668,101
000000048500002,ŽST Lamač,48.1852493286133,17.049129486084,101
000000051400002,Segnáre-nadchod,48.1839370727539,17.0517845153809,101
000000032000001,Pridánky,48.1808547973633,17.0573444366455,101
000000032000002,Pridánky,48.1807136535645,17.0582695007324,101
000000026100010,Most SNP,48.1402740478516,17.1041526794434,100
000000035700002,Cintorín Slávičie údolie,48.158390045166,17.0678081512451,100
000000042700001,Televízia,48.1559677124023,17.0719547271729,100
000000042700002,Televízia,48.1563262939453,17.0716705322266,100
000000035800005,ZOO,48.1541137695313,17.0750980377197,100
000000035800004,ZOO,48.1546478271484,17.0744171142578,100
000000050000001,Zochova,48.1455154418945,17.1040668487549,100
000000050000002,Zochova,48.1456756591797,17.1038455963135,100
000000024400001,Nám. 1. mája,48.1509971618652,17.1121234893799,100
000000024400002,Nám. 1. mája,48.1501884460449,17.1109962463379,100
000000042200004,STU,48.1522979736328,17.1131534576416,100
000000030400001,Povraznícka,48.1553268432617,17.1168441772461,100
000000033200007,Račianske mýto,48.1571388244629,17.1191596984863,100
000000043700009,Trnavské mýto,48.1576194763184,17.1268539428711,100
000000009300010,Hlavná stanica,48.1574554443359,17.1065444946289,100
000000017500004,Kuklovská,48.1576156616211,17.0447883605957,100
000000017500006,Kuklovská,48.1579055786133,17.0444183349609,100
000000062500001,Kuklovská 60,48.1594276428223,17.0455188751221,100
000000062500002,Kuklovská 60,48.1593246459961,17.04541015625,100
000000062600001,Kuklovská 44,48.1615867614746,17.0448799133301,100
000000062600002,Kuklovská 44,48.1616477966309,17.044885635376,100
000000062700001,Sološnická,48.1628456115723,17.0431632995605,100
000000062700002,Sološnická,48.1627464294434,17.0432872772217,100
000000062800001,Šaštínska,48.1649856567383,17.0452136993408,100
000000062800002,Šaštínska,48.1647491455078,17.0452671051025,100
000000001900004,Borská,48.1627426147461,17.0484046936035,100
000000001900003,Borská,48.1625022888184,17.0481204986572,100
000000009000002,Harmincova,48.1765441894531,17.0476055145264,101
000000009000001,Harmincova,48.1770172119141,17.046558380127,101
000000029800003,Polianky,48.1755409240723,17.0604095458984,101
000000029800004,Polianky,48.1758308410645,17.0589771270752,101
000000019200003,Dúbravská cesta,48.1732788085938,17.0666599273682,100
000000030900002,Pri krematóriu,48.2093925476074,17.0407333374023,101
000000030900001,Pri krematóriu,48.2083587646484,17.0409908294678,101
000000035600002,Podkerepušky,48.2203712463379,17.0346717834473,101
000000035600001,Podkerepušky,48.2205276489258,17.0345268249512,101
000000005900002,Dievčí hrádok,48.2291374206543,17.0325965881348,101
000000005900001,Dievčí hrádok,48.2287979125977,17.0325183868408,101
000000044100002,TV Markíza,48.2341537475586,17.0315933227539,101
000000044100001,TV Markíza,48.2342834472656,17.0316848754883,101
000000016800002,Krče,48.2374687194824,17.0355110168457,101
000000016800001,Krče,48.2380638122559,17.034631729126,101
000000060600002,MiÚ Záhorská Bystrica,48.2387886047363,17.0377311706543,101
000000047900002,Záhorská,48.2412986755371,17.038459777832,101
000000047900001,Záhorská,48.2414817810059,17.0374794006348,101
000000048100001,Záhorská Bystrica,48.2399253845215,17.0438232421875,101
000000048100002,Záhorská Bystrica,48.239818572998,17.0436573028564,101
000000068400002,Trstínska,48.244140625,17.038293838501,101
000000068400001,Trstínska,48.24365234375,17.0381202697754,101
000000068500002,"Marianka,Nad Bednárovým",48.2499847412109,17.046049118042,215
000000068500001,"Marianka,Nad Bednárovým",48.2498626708984,17.0456962585449,215
000000068600002,"Marianka,Cesta do Stupavy",48.2516403198242,17.055383682251,215
000000068600001,"Marianka,Cesta do Stupavy",48.2516975402832,17.0553112030029,215
000000068700002,"Marianka,námestie",48.2490882873535,17.0625457763672,215
000000068700001,"Marianka,námestie",48.2490882873535,17.0625457763672,215
000000070100002,Pri Vápenickom potoku,48.2349052429199,17.0369281768799,101
000000070100001,Pri Vápenickom potoku,48.234977722168,17.0370578765869,101
000000070200002,Pri kaplnke,48.2318916320801,17.040994644165,101
000000070200001,Pri kaplnke,48.2320137023926,17.0410919189453,101
000000037100002,Strmé vŕšky,48.2277603149414,17.0477752685547,101
000000037100001,Strmé vŕšky,48.2280311584473,17.0476245880127,101
000000049100002,Trnavská-NAD,48.1650848388672,17.155891418457,100
000000049100001,Trnavská-NAD,48.1651229858398,17.1557312011719,100
000000021100002,Martinský cintorín,48.1649627685547,17.1603488922119,100
000000021100001,Martinský cintorín,48.1650695800781,17.1593723297119,100
000000003400002,Clementisova,48.164867401123,17.1650333404541,100
000000003400001,Clementisova,48.1649398803711,17.1644649505615,100
000000012200002,Ivanská cesta,48.1638107299805,17.1719207763672,100
000000012200001,Ivanská cesta,48.1649398803711,17.1644649505615,100
000000034400004,Súhvezdná,48.1616058349609,17.17604637146,100
000000034400003,Súhvezdná,48.1611938476563,17.1768493652344,100
000000009300009,Hlavná stanica,48.1573677062988,17.1062812805176,100
000000056000002,Súbežná,48.161018371582,17.0828113555908,100
000000056000001,Súbežná,48.1607627868652,17.0834712982178,100
000000060800002,Hauerland,48.1612014770508,17.0795612335205,100
000000060800001,Hauerland,48.1611633300781,17.0796356201172,100
000000036000002,Slov. nár. archív,48.1598434448242,17.0795440673828,100
000000036000001,Slov. nár. archív,48.1598167419434,17.079610824585,100
000000039500002,Šafranová,48.1574478149414,17.0809555053711,100
000000039500001,Šafranová,48.1572151184082,17.0813694000244,100
000000056100002,Prvosienková,48.1548385620117,17.0850811004639,100
000000056100001,Prvosienková,48.1553840637207,17.084056854248,100
000000061800002,Na hrebienku,48.1538162231445,17.0874423980713,100
000000061800001,Na hrebienku,48.153621673584,17.0881633758545,100
000000007000002,Dubová,48.1655120849609,17.0827369689941,100
000000007000001,Dubová,48.1653938293457,17.0822696685791,100
000000046200004,Vojenská nemocnica,48.1725845336914,17.0740833282471,100
000000069300002,Červený most P+R,48.1748237609863,17.0737915039063,100
000000069300001,Červený most P+R,48.1748008728027,17.0736865997314,100
000000015000002,Klepáč,48.1818008422852,17.073450088501,101
000000015000001,Klepáč,48.1819076538086,17.073579788208,101
000000003000002,Deviaty mlyn,48.1857833862305,17.0775661468506,101
000000003000001,Deviaty mlyn,48.1859092712402,17.0776271820068,101
000000050700004,Železná studnička,48.1905517578125,17.0817775726318,101
000000050700001,Železná studnička,48.1901702880859,17.0815734863281,101
000000066800002,Kačínska dolina,48.2026672363281,17.0744762420654,101
000000066800001,Kačínska dolina,48.2026405334473,17.074405670166,101
000000066700002,Kačín,48.214714050293,17.0684833526611,101
000000066700001,Kačín,48.2147789001465,17.0682373046875,101
000000050700002,Železná studnička,48.1902160644531,17.0824737548828,101
000000018700002,Bukva,48.192455291748,17.0871467590332,101
000000018700001,Bukva,48.1924057006836,17.0870399475098,101
000000034600002,Drieňovské lúky,48.1944770812988,17.0917987823486,101
000000034600001,Drieňovské lúky,48.1943435668945,17.0915298461914,101
000000018400002,Lanovka,48.1952896118164,17.0980739593506,101
000000018400001,Lanovka,48.1952857971191,17.0979080200195,101
000000014000002,Kameňolom,48.1967010498047,17.1001071929932,101
000000014000001,Kameňolom,48.1966667175293,17.1000423431396,101
000000018800002,Lesopark,48.2015037536621,17.0989971160889,101
000000018800001,Lesopark,48.2017707824707,17.0984764099121,101
000000009500003,Hodžovo nám.,48.1479835510254,17.1068496704102,100
000000030600003,Nám. Franza Liszta,48.155647277832,17.1083393096924,100
000000022800001,Mlynské nivy,48.1472702026367,17.1240901947021,100
000000024800006,Nám. Ľ. Štúra,48.1399345397949,17.1086959838867,100
000000024800005,Nám. Ľ. Štúra,48.1401176452637,17.1116142272949,100
000000035300004,Segnerova,48.1538124084473,17.0577278137207,100
000000035300003,Segnerova,48.1534576416016,17.0582752227783,100
000000024000004,Nad lúčkami,48.1568641662598,17.0527534484863,100
000000024000003,Nad lúčkami,48.1568641662598,17.0531826019287,100
000000018000004,MiÚ Karlova Ves,48.1591453552246,17.0515327453613,100
000000018000003,MiÚ Karlova Ves,48.1584854125977,17.0516185760498,100
000000041200002,Štepná,48.1915397644043,17.0286521911621,101
000000041200001,Štepná,48.191333770752,17.0284118652344,101
000000064700001,Júlová,48.1685256958008,17.0976390838623,100
000000064700002,Júlová,48.1684265136719,17.0977191925049,100
000000058500001,Na Revíne,48.1686210632324,17.0959014892578,100
000000058500002,Na Revíne,48.1687049865723,17.0961055755615,100
000000058600002,Júnová,48.1672248840332,17.0980796813965,100
000000058600001,Júnová,48.1671943664551,17.0979881286621,100
000000059500001,Višňová,48.1658401489258,17.0998554229736,100
000000059300001,L.Dérera,48.165943145752,17.1020755767822,100
000000059400001,Guothova,48.1654396057129,17.0989379882813,100
000000001100004,Bárdošova,48.165096282959,17.0958919525146,100
000000001100003,Bárdošova,48.1660308837891,17.0942001342773,100
000000059100002,Rozvodná,48.1682281494141,17.0938091278076,100
000000014900004,Klenová,48.1706237792969,17.0929985046387,100
000000014900003,Klenová,48.1704597473145,17.0930042266846,100
000000038800004,Stromová,48.162670135498,17.0996398925781,100
000000058700002,Cesta na Kamzík,48.1616325378418,17.102783203125,100
000000058700001,Cesta na Kamzík,48.1618003845215,17.1026172637939,100
000000059000001,Žabotova,48.1589508056641,17.1090717315674,100
000000058900001,Matúškova,48.1596984863281,17.1120853424072,100
000000058800001,Jaskový rad,48.1595420837402,17.1081962585449,100
000000018600004,Legionárska,48.1551055908203,17.1244029998779,100
000000018600003,Legionárska,48.1553230285645,17.1242351531982,100
000000043700010,Trnavské mýto,48.1571044921875,17.1268920898438,100
000000021300004,POLUS CITY CENTER,48.1684188842773,17.1381568908691,100
000000021300003,POLUS CITY CENTER,48.168773651123,17.1381149291992,100
000000048800003,Zátišie,48.1734008789063,17.1424694061279,100
000000026800004,Odborárska,48.1767883300781,17.1465625762939,100
000000026800003,Odborárska,48.1761436462402,17.1452255249023,100
000000020500004,Magnetová,48.1799926757813,17.1551151275635,100
000000020500003,Magnetová,48.1794204711914,17.1527271270752,100
000000046400001,Vozovňa Jurajov dvor,48.1815872192383,17.1612987518311,100
000000013300004,Jurajov dvor,48.1826324462891,17.1619911193848,100
000000061600004,PPA CONTROLL,48.1854934692383,17.1709976196289,101
000000061600003,PPA CONTROLL,48.1850891113281,17.1692218780518,101
000000049700004,Zlaté piesky,48.189094543457,17.1842594146729,101
000000049700003,Zlaté piesky,48.1892700195313,17.1826190948486,101
000000049400002,KON-RAD,48.1888427734375,17.1959857940674,101
000000049400001,KON-RAD,48.1902694702148,17.1963176727295,101
000000024200002,Vajnory-nadjazd,48.1948089599609,17.1989364624023,101
000000024200001,Vajnory-nadjazd,48.1947021484375,17.1988067626953,101
000000031400002,Pri starom letisku,48.1991920471191,17.1977882385254,101
000000044300002,Uhliská,48.201732635498,17.2018966674805,101
000000045000002,MiÚ Vajnory,48.2050704956055,17.2087631225586,101
000000045000001,MiÚ Vajnory,48.2045097351074,17.2072906494141,101
000000010000002,Hospodárska,48.207706451416,17.2136402130127,101
000000010000001,Hospodárska,48.2076835632324,17.213472366333,101
000000044900002,Vajnory,48.2087287902832,17.2167205810547,101
000000044900001,Vajnory,48.2092437744141,17.2184028625488,101
000000045100002,Vajnory-konečná,48.2090873718262,17.2199592590332,101
000000045100001,Vajnory-konečná,48.2092895507813,17.2200450897217,101
000000033200008,Račianske mýto,48.1589584350586,17.1216201782227,100
000000044600004,Ursínyho,48.1628074645996,17.124568939209,100
000000044600003,Ursínyho,48.1614112854004,17.1232166290283,100
000000022400004,Mladá garda,48.1799354553223,17.1288814544678,100
000000022400003,Mladá garda,48.17919921875,17.1283721923828,100
000000024500004,Nám. Biely kríž,48.1828384399414,17.1306991577148,100
000000024500003,Nám. Biely kríž,48.1815567016602,17.1291179656982,100
000000052200006,ŽST Vinohrady,48.1857795715332,17.1338710784912,100
000000052200005,ŽST Vinohrady,48.1852607727051,17.1330337524414,100
000000046500004,Vozovňa Krasňany,48.1882476806641,17.1358451843262,101
000000046500003,Vozovňa Krasňany,48.1876258850098,17.1350345611572,101
000000026200004,Malé Krasňany,48.1910133361816,17.1393260955811,101
000000026200003,Malé Krasňany,48.1911888122559,17.1393795013428,101
000000028700004,Pekná cesta,48.1959419250488,17.1445503234863,101
000000028700003,Pekná cesta,48.1953315734863,17.1433238983154,101
000000003600004,Černockého,48.2003021240234,17.1483497619629,101
000000003600003,Černockého,48.1996688842773,17.1476402282715,101
000000009100004,Hečkova,48.2035598754883,17.15016746521,101
000000009100003,Hečkova,48.2035980224609,17.1499633789063,101
000000002500002,Bukovinská,48.2055168151855,17.1521587371826,101
000000002500001,Bukovinská,48.2053108215332,17.1515941619873,101
000000043500002,Trávna,48.210578918457,17.157693862915,101
000000043500001,Trávna,48.2107124328613,17.1574153900146,101
000000042500004,Púchovská,48.2152061462402,17.1648616790771,101
000000042500003,Púchovská,48.2147064208984,17.1632995605469,101
000000001400004,Rybničná,48.2194061279297,17.1825733184814,101
000000001400001,Rybničná,48.2191696166992,17.1819896697998,101
000000027400002,OU obchodné,48.2165718078613,17.1779975891113,101
000000027400001,OU obchodné,48.2163047790527,17.1778202056885,101
000000027500002,OU železničné,48.2146873474121,17.1759605407715,101
000000027500001,OU železničné,48.2144470214844,17.1758041381836,101
000000021500002,Na pantoch,48.2121696472168,17.1732196807861,101
000000021500001,Na pantoch,48.2125015258789,17.1733646392822,101
000000011600002,Ihrisková,48.2076225280762,17.158712387085,101
000000038300001,Stolárska,48.2082595825195,17.1555862426758,101
000000028300002,Pastierska,48.2060012817383,17.1591053009033,101
000000028300001,Pastierska,48.2061614990234,17.1589603424072,101
000000049300002,Pri Šajbách,48.2028274536133,17.1623249053955,101
000000049300001,Pri Šajbách,48.2030754089355,17.1619644165039,101
000000035500002,Sklabinská,48.2008323669434,17.1637020111084,101
000000035500001,Sklabinská,48.2010307312012,17.163948059082,101
000000019500002,Lokomotívne depo I,48.1994285583496,17.1652698516846,101
000000019500001,Lokomotívne depo I,48.1994895935059,17.1651287078857,101
000000047200002,Východné,48.1989097595215,17.1681442260742,101
000000047200001,Východné,48.1989669799805,17.1679611206055,101
000000023800002,Na pasekách,48.1975364685059,17.1726970672607,101
000000023800001,Na pasekách,48.1977653503418,17.1725158691406,101
000000019600002,Lokomotívne depo II,48.1962089538574,17.1793022155762,101
000000019600001,Lokomotívne depo II,48.1962928771973,17.1789741516113,101
000000051000001,Športové letisko,48.1969871520996,17.191967010498,101
000000051000002,Športové letisko,48.197151184082,17.1923961639404,101
000000031400001,Pri starom letisku,48.1999168395996,17.1980400085449,101
000000007200002,Dulovo nám.,48.149471282959,17.1345405578613,100
000000007200001,Dulovo nám.,48.1495552062988,17.134241104126,100
000000006700004,Drieňová,48.1577491760254,17.1443367004395,100
000000006700002,Drieňová,48.1578941345215,17.1436386108398,100
000000043000001,Bratislavská župa,48.1604270935059,17.15016746521,100
000000043000002,Bratislavská župa,48.1600608825684,17.1481132507324,100
000000036900001,Solivarská,48.1607933044434,17.1549587249756,100
000000036900002,Solivarská,48.1606025695801,17.1539173126221,100
000000045700001,VD Úsvit,48.1623992919922,17.1581993103027,100
000000031800002,Pri zvonici,48.173267364502,17.171293258667,100
000000031800001,Pri zvonici,48.1731948852539,17.1709651947021,100
000000037400002,Stará Ivanská,48.1702728271484,17.1749458312988,100
000000037400001,Stará Ivanská,48.1711349487305,17.1745376586914,100
000000008300001,Galvaniho,48.1672477722168,17.176549911499,100
000000055300004,AVION-SHOPP. PARK,48.1677436828613,17.1781692504883,101
000000029000002,AVION-IKEA,48.1692504882813,17.1815929412842,101
000000029000001,AVION-IKEA,48.1686058044434,17.1797103881836,101
000000058000002,Pestovateľská,48.169807434082,17.1832828521729,101
000000058000001,Pestovateľská,48.1699638366699,17.1831531524658,101
000000048300002,Fatruny,48.1713256835938,17.190975189209,101
000000048300001,Fatruny,48.1713638305664,17.1897258758545,101
000000003100002,Cesta na letisko,48.1709480285645,17.1969032287598,101
000000018900002,Letisko,48.1699752807617,17.1990756988525,101
000000018900001,Letisko,48.1706581115723,17.1999816894531,101
000000023400004,SLOVANET,48.1558380126953,17.1426200866699,100
000000023400003,SLOVANET,48.1559371948242,17.1418743133545,100
000000030800004,Nemocnica Ružinov,48.1565551757813,17.1519165039063,100
000000030800003,Nemocnica Ružinov,48.1567916870117,17.1508750915527,100
000000009200004,Herlianska-OC RETRO,48.1568984985352,17.1560897827148,100
000000009200003,Herlianska-OC RETRO,48.157112121582,17.1555328369141,100
000000043200004,Tomášikova,48.1573295593262,17.1613292694092,100
000000043200003,Tomášikova,48.1575546264648,17.1617069244385,100
000000039100004,Súmračná,48.1578636169434,17.1690921783447,100
000000039100003,Súmračná,48.1580390930176,17.1679935455322,100
000000000600004,Astronomická,48.158519744873,17.1782073974609,100
000000000600003,Astronomická,48.1586875915527,17.1766357421875,100
000000046700002,Vrakuňa-záhrady,48.1539573669434,17.1956367492676,101
000000046700001,Vrakuňa-záhrady,48.1575393676758,17.1898422241211,101
000000020700002,Majerská,48.1512908935547,17.2012252807617,101
000000020700001,Majerská,48.1518363952637,17.2003402709961,101
000000040000002,Šípová,48.1493339538574,17.2042999267578,101
000000040000001,Šípová,48.1498832702637,17.2039356231689,101
000000040100002,Šíravská,48.1458892822266,17.2053146362305,101
000000040100001,Šíravská,48.1460075378418,17.2056140899658,101
000000007800002,Estónska,48.1460075378418,17.2056140899658,101
000000007800001,Estónska,48.1439590454102,17.2041606903076,101
000000037800002,Stavbárska,48.1403350830078,17.2026634216309,101
000000037800001,Stavbárska,48.1400337219238,17.2027606964111,101
000000001700002,Bodrocká,48.1323890686035,17.2089786529541,101
000000051600001,ŽST P. Biskupice,48.1305770874023,17.2207050323486,101
000000044500002,Ul. 8. mája,48.1282653808594,17.2170257568359,101
000000044200001,Učiteľská,48.127010345459,17.2125072479248,101
000000024300002,Nákupná,48.1287078857422,17.2082538604736,101
000000015900002,Korytnická,48.1304740905762,17.2059898376465,101
000000034400001,Súhvezdná,48.1611442565918,17.1771087646484,100
000000000600006,Astronomická,48.1592636108398,17.1771831512451,100
000000021800001,Mierová,48.1498603820801,17.166389465332,100
000000020100002,Lúčna,48.1385688781738,17.1525230407715,100
000000020100001,Lúčna,48.1388397216797,17.1527118682861,100
000000015400002,Pálenisko,48.1358375549316,17.1581878662109,100
000000015400001,Pálenisko,48.135196685791,17.1612071990967,100
000000042800002,Terminál,48.135196685791,17.1612071990967,100
000000042800001,Terminál,48.135368347168,17.1611480712891,100
000000028600002,Čierny les,48.1330528259277,17.170841217041,100
000000028600001,Čierny les,48.1330032348633,17.17116355896,100
000000036200001,Vlčie hrdlo,48.1284637451172,17.1749134063721,100
000000023500003,Muchovo nám.,48.1291694641113,17.1139698028564,100
000000007900002,Farského,48.1278305053711,17.1173114776611,100
000000007900001,Farského,48.1285858154297,17.1166706085205,100
000000022600002,Mlynarovičova,48.1277046203613,17.1216125488281,100
000000022600001,Mlynarovičova,48.1279106140137,17.1199398040771,100
000000002000003,Bosákova,48.1277732849121,17.123420715332,100
000000041600002,Šustekova,48.1259727478027,17.1256198883057,100
000000041600001,Šustekova,48.1261444091797,17.1252384185791,100
000000002700002,Bulíkova,48.1245918273926,17.1287536621094,100
000000002700001,Bulíkova,48.1241493225098,17.1292362213135,100
000000027700002,Ovsištské nám.,48.1204299926758,17.130615234375,100
000000027700001,Ovsištské nám.,48.1201820373535,17.1305465698242,100
000000027600001,Ovsište,48.1186065673828,17.1320209503174,100
000000041700002,Švabinského,48.1146202087402,17.1016902923584,100
000000041700001,Švabinského,48.1150093078613,17.1022491455078,100
000000013100002,Jiráskova,48.1123657226563,17.0986804962158,100
000000013100001,Jiráskova,48.1117935180664,17.0993671417236,100
000000015800004,Kopčany-sídlisko,48.1139450073242,17.0927257537842,100
000000015800003,Kopčany-sídlisko,48.1142311096191,17.093090057373,100
000000049000002,Kopčianska-stred,48.1188011169434,17.0959758758545,100
000000049000001,Kopčianska-stred,48.1183128356934,17.0955696105957,100
000000051700004,ŽST Petržalka,48.1213188171387,17.0973224639893,100
000000051700003,ŽST Petržalka,48.1209526062012,17.0975151062012,100
000000017800002,Údernícka-Kúpalisko,48.1227607727051,17.0930843353271,100
000000017800001,Údernícka-Kúpalisko,48.1228790283203,17.0927639007568,100
000000050600001,Žehrianska,48.095775604248,17.1197948455811,100
000000040900002,Gaštanová aleja,48.0437927246094,17.1551990509033,101
000000040900001,Gaštanová aleja,48.0440292358398,17.1549491882324,101
000000060400002,Pieskový hon,48.0390777587891,17.1602687835693,101
000000060400001,Pieskový hon,48.0390281677246,17.1602363586426,101
000000005000002,Čunovské jazerá,48.0327072143555,17.165563583374,101
000000005000001,Čunovské jazerá,48.0328941345215,17.1656017303467,101
000000004800002,MiÚ Čunovo,48.0286331176758,17.1981353759766,101
000000004800001,MiÚ Čunovo,48.0274276733398,17.1967849731445,101
000000004900002,Čunovo-námestie,48.0313720703125,17.1999759674072,101
000000004900001,Čunovo-námestie,48.0310821533203,17.1995620727539,101
000000004700002,Čunovo,48.0338592529297,17.1956577301025,101
000000004700001,Čunovo,48.0341033935547,17.1958503723145,101
000000034300002,Rusovská cesta,48.1235694885254,17.1025905609131,100
000000034300001,Rusovská cesta,48.1237335205078,17.1031532287598,100
000000060500002,VŠ Manažmentu,48.1185340881348,17.0981483459473,100
000000060500001,VŠ Manažmentu,48.1159973144531,17.0966415405273,100
000000036700002,Smolenická,48.1086692810059,17.1008033752441,100
000000036700001,Smolenická,48.1092720031738,17.1009922027588,100
000000020200002,Lúky II,48.1074371337891,17.0982112884521,100
000000020200001,Lúky II,48.1070899963379,17.0984230041504,100
000000050200002,ZŠ Budatínska,48.1024780273438,17.099739074707,100
000000050200001,ZŠ Budatínska,48.1029624938965,17.0995769500732,100
000000002400004,Budatínska,48.0997352600098,17.1013088226318,100
000000002400003,Budatínska,48.1009635925293,17.1010932922363,100
000000020300002,Lúky V,48.0962028503418,17.1034336090088,100
000000020300001,Lúky V,48.0970153808594,17.1029682159424,100
000000047500001,Vyšehradská,48.0951538085938,17.1068019866943,100
000000047500003,Vyšehradská,48.0952606201172,17.1049613952637,100
000000050600002,Žehrianska,48.0969505310059,17.1207942962646,100
000000017200002,Kremnická,48.1282653808594,17.0938148498535,100
000000017200001,Kremnická,48.1287803649902,17.0936965942383,100
000000048700002,Záporožská,48.1253280639648,17.0966949462891,100
000000048700001,Záporožská,48.1263656616211,17.0959663391113,100
000000061900002,Gercenova,48.1240386962891,17.1000118255615,100
000000061900001,Gercenova,48.1241340637207,17.1005954742432,100
000000027600002,Ovsište,48.1182174682617,17.1321811676025,100
000000007900003,Farského,48.1274108886719,17.1163177490234,100
000000020400001,Tupolevova,48.1108703613281,17.1060218811035,100
000000020400002,Tupolevova,48.1108474731445,17.1046161651611,100
000000039900002,Šintavská,48.1063270568848,17.107328414917,100
000000009600001,Holíčska,48.1073188781738,17.1031303405762,100
000000009600003,Holíčska,48.1066093444824,17.1043281555176,100
000000002400002,Budatínska,48.1000175476074,17.1035003662109,100
000000002400001,Budatínska,48.1001586914063,17.1025619506836,100
000000049900002,Znievska,48.1006164550781,17.106071472168,100
000000049900001,Znievska,48.1005058288574,17.1053352355957,100
000000026600002,OD Slimák,48.1701126098633,17.1287155151367,100
000000017600002,Kukučínova,48.1730194091797,17.1294174194336,100
000000008600001,Hálkova,48.1714172363281,17.1342182159424,100
000000008600002,Hálkova,48.1716384887695,17.1340217590332,100
000000021300005,POLUS CITY CENTER,48.1697731018066,17.1384525299072,100
000000021300006,POLUS CITY CENTER,48.1697731018066,17.1385917663574,100
000000058200002,Trhovisko,48.1526412963867,17.1360893249512,100
000000030700001,Landererova,48.1425170898438,17.1238384246826,100
000000058100002,Most Apollo,48.1394233703613,17.1284198760986,100
000000039000002,AUPARK,48.1321067810059,17.1075572967529,100
000000039000001,AUPARK,48.1319274902344,17.1084766387939,100
000000026800006,Odborárska,48.1765518188477,17.1450443267822,100
000000037500001,Staré ihrisko,48.1794204711914,17.1385269165039,100
000000037500002,Staré ihrisko,48.1797523498535,17.1379146575928,100
000000043800001,EU VZDEL.AKADÉMIA,48.181999206543,17.1347560882568,100
000000043800002,EU VZDEL.AKADÉMIA,48.1822853088379,17.1351051330566,100
000000025600002,Nobelova,48.1843376159668,17.13671875,100
000000025600001,Nobelova,48.1840553283691,17.1364936828613,100
000000023800004,Na pasekách,48.197582244873,17.1724300384521,101
000000003500001,Čachtická,48.2111396789551,17.1556129455566,101
000000003500002,Čachtická,48.2106094360352,17.1564235687256,101
000000048900002,Závadská,48.213451385498,17.1567344665527,101
000000048900001,Závadská,48.2132720947266,17.1563854217529,101
000000041900002,Tbiliská,48.2154235839844,17.1592502593994,101
000000041900001,Tbiliská,48.2153854370117,17.158842086792,101
000000043700008,Trnavské mýto,48.1584205627441,17.129810333252,100
000000043700007,Trnavské mýto,48.1584510803223,17.13014793396,100
000000025700004,Nová doba,48.165111541748,17.1363964080811,100
000000033300006,Rádiová,48.1744613647461,17.1639709472656,100
000000033300005,Rádiová,48.1747055053711,17.1637935638428,100
000000001800003,Vozovňa Trnávka,48.1780471801758,17.1668834686279,100
000000001800002,Vozovňa Trnávka,48.1780433654785,17.1679725646973,100
000000001800001,Vozovňa Trnávka,48.1771507263184,17.1666107177734,100
000000005200002,Shopping Park Soravia,48.1829376220703,17.1722049713135,101
000000005200001,Shopping Park Soravia,48.1825065612793,17.1712970733643,101
000000044300001,Uhliská,48.201587677002,17.2013664245605,101
000000035500003,Sklabinská,48.2009506225586,17.163745880127,101
000000070600001,Obchod Vajnory,48.1997871398926,17.1964778900146,101
000000004100001,Čierny chodník,48.2022247314453,17.2038383483887,101
000000030500003,Pračanská,48.2000274658203,17.2060699462891,101
000000030500001,Pračanská,48.2013893127441,17.2081203460693,101
000000031100001,Pri mlyne,48.1996002197266,17.2106189727783,101
000000052100002,ŽST Vajnory,48.195140838623,17.2047939300537,101
000000052100001,ŽST Vajnory,48.195442199707,17.2055263519287,101
000000045600001,Studená,48.1803665161133,17.1790542602539,101
000000045600002,Studená,48.1804695129395,17.1789646148682,101
000000022300002,Studená-zastávka,48.1827964782715,17.1776275634766,101
000000022300001,Studená-zastávka,48.1839485168457,17.1771984100342,101
000000034100004,Shopping Palace,48.1857490539551,17.1765995025635,101
000000033100001,MiÚ Rača,48.2113189697266,17.1538047790527,101
000000033100002,MiÚ Rača,48.2111015319824,17.1537303924561,101
000000045800001,Nemecký kultúrny dom,48.2089004516602,17.1496696472168,101
000000045800002,Nemecký kultúrny dom,48.208667755127,17.1501293182373,101
000000001200001,Barónka,48.2106132507324,17.1413707733154,101
000000001200002,Barónka,48.2106666564941,17.1417407989502,101
000000024700001,Nám. A.Hlinku,48.2136192321777,17.1518745422363,101
000000024700002,Nám. A. Hlinku,48.2135124206543,17.1511878967285,101
000000041900004,Tbiliská,48.2154235839844,17.1592502593994,101
000000041900003,Tbiliská,48.2153701782227,17.1590461730957,101
000000066500002,Karpatské nám.,48.2161254882813,17.1622371673584,101
000000066500001,Karpatské nám.,48.216136932373,17.1626243591309,101
000000048400004,Záhumenice,48.2127799987793,17.1624088287354,101
000000048400003,Záhumenice,48.212833404541,17.1622753143311,101
000000050400001,Zvončeková,48.2182273864746,17.1502208709717,101
000000050400002,Zvončeková,48.218391418457,17.1502475738525,101
000000052400002,Potočná,48.2221298217773,17.1486282348633,101
000000052400001,Potočná,48.2222023010254,17.1485328674316,101
000000046400005,Vozovňa Jurajov dvor,48.1816024780273,17.1608905792236,100
000000046400006,Vozovňa Jurajov dvor,48.1815757751465,17.160457611084,100
000000013300003,Jurajov dvor,48.1833152770996,17.1626281738281,100
000000031200002,Pri nadjazde,48.1875419616699,17.1593837738037,101
000000031200001,Pri nadjazde,48.1875877380371,17.1592617034912,101
000000006400002,Mokraď,48.1941719055176,17.1572227478027,101
000000006400001,Mokraď,48.1936569213867,17.1572265625,101
000000032200002,Žabí majer-záhrady,48.1962013244629,17.1600494384766,101
000000032200001,Žabí majer-záhrady,48.1963958740234,17.1593837738037,101
000000027900002,Žabí majer,48.1951789855957,17.1659774780273,101
000000027900001,Žabí majer,48.195125579834,17.1662063598633,101
000000031900002,Pribylinská,48.1924743652344,17.1583976745605,101
000000031900001,Pribylinská,48.1925315856934,17.1580867767334,101
000000038000002,Staviteľská,48.1904449462891,17.1629734039307,101
000000038000001,Staviteľská,48.1904678344727,17.1622772216797,101
000000038100002,Stavivá,48.191276550293,17.1702461242676,101
000000063200001,Kalné jazero,48.1927642822266,17.1760406494141,101
000000063300001,Spádovisko I.,48.1937484741211,17.178035736084,101
000000063400001,Spádovisko II.,48.1919136047363,17.1842479705811,101
000000049700005,Zlaté piesky,48.189826965332,17.1835441589355,101
000000034100005,Shopping Palace,48.1878814697266,17.1758041381836,101
000000049600001,ZIPP,48.1851234436035,17.169303894043,101
000000023300001,Stará Vajnorská,48.1867179870605,17.1662712097168,101
000000042300001,Technická,48.1756057739258,17.1752033233643,100
000000042300002,Technická,48.1753463745117,17.1751937866211,100
000000001600001,Bočná,48.175407409668,17.1705379486084,100
000000001600002,Bočná,48.1753921508789,17.1707458496094,100
000000033300003,Rádiová,48.1740226745605,17.1662616729736,100
000000033300004,Rádiová,48.1738471984863,17.1663684844971,100
000000057700001,Vihorlatská,48.1750526428223,17.1604194641113,100
000000057700002,Vihorlatská,48.1748161315918,17.160623550415,100
000000021900001,Mierová kolónia,48.1767349243164,17.1569747924805,100
000000021900002,Mierová kolónia,48.1767807006836,17.157205581665,100
000000020500005,Magnetová,48.1789627075195,17.1541423797607,100
000000051500005,ŽST Nové Mesto,48.1711006164551,17.1466865539551,100
000000051500006,ŽST Nové Mesto,48.1712112426758,17.1449756622314,100
000000025300002,Nemocnica Antolská,48.1014404296875,17.115421295166,100
000000025300001,Nemocnica Antolská,48.1011352539063,17.1153049468994,100
000000052300002,Antolská,48.1037330627441,17.1155910491943,100
000000052300001,Antolská,48.1034545898438,17.1155071258545,100
000000055300001,AVION-SHOPP. PARK,48.166389465332,17.1787986755371,101
000000036500001,BIGMEDIA-Slowackého,48.1652297973633,17.170015335083,100
000000036500002,BIGMEDIA-Slowackého,48.1654624938965,17.1709499359131,100
000000031100002,Pri mlyne,48.1992492675781,17.2106418609619,101
000000030500002,Pračanská,48.2013092041016,17.2083606719971,101
000000004000002,"Č. Voda, Vajnorská",48.218578338623,17.2295608520508,610
000000004000001,"Č. Voda, Vajnorská",48.2184448242188,17.2293529510498,610
000000003900002,Čierna voda,48.2236633300781,17.2308006286621,610
000000003900001,Čierna voda,48.2234115600586,17.2309761047363,610
000000059800004,"Č. Voda, Na pasienku",48.2262763977051,17.2357788085938,610
000000059800003,"Č. Voda, Na pasienku",48.2260894775391,17.2352046966553,610
000000056900002,"Č.Voda,Hor.dvor",48.230899810791,17.2432308197021,610
000000056900001,"Č.Voda,Hor.dvor",48.2310218811035,17.2432708740234,610
000000063900002,"Ch.Grob,Monarská Alej",48.2342414855957,17.2498874664307,525
000000063900001,"Ch.Grob,Monarská Alej",48.2342948913574,17.250825881958,525
000000063800002,"Ch.Grob , Žilinská",48.2326393127441,17.256742477417,525
000000063800001,"Ch.Grob , Žilinská",48.2326393127441,17.2569675445557,525
000000063700002,"Ch.Grob , Lúčna",48.2282981872559,17.2768592834473,525
000000063700001,"Ch. Grob , Lúčna",48.228328704834,17.276912689209,525
000000057000002,"Ch.Grob,Výhon",48.2280960083008,17.2843265533447,525
000000057000001,"Ch.Grob,Výhon",48.228141784668,17.2840538024902,525
000000057100002,Chorvátsky Grob,48.2274360656738,17.2904624938965,525
000000057100001,Chorvátsky Grob,48.2274360656738,17.2904624938965,525
000000055300002,AVION-SHOPP. PARK,48.16748046875,17.1790599822998,101
000000008300002,Galvaniho,48.1686058044434,17.1765823364258,100
000000001800006,Vozovňa Trnávka,48.1770286560059,17.1677150726318,100
000000059600001,Vajnorský potok,48.221851348877,17.1775588989258,101
000000001400002,Rybničná,48.2193756103516,17.1820068359375,101
000000040400002,Šprinclov majer,48.2146644592285,17.1898593902588,101
000000040400001,Šprinclov majer,48.2149353027344,17.1897411346436,101
000000046300002,Vojenský útvar,48.2121772766113,17.1930351257324,101
000000046300001,Vojenský útvar,48.2121124267578,17.1933345794678,101
000000015700002,Koniarkova,48.2063064575195,17.2021751403809,101
000000015700001,Koniarkova,48.2064628601074,17.2020359039307,101
000000027300002,Osloboditeľská,48.204532623291,17.2033672332764,101
000000027300001,Osloboditeľská,48.2046928405762,17.2034740447998,101
000000060300002,Tuhovská,48.1906700134277,17.1956310272217,101
000000049700006,Zlaté piesky,48.1898651123047,17.1837539672852,101
000000049600002,ZIPP,48.1853446960449,17.1706123352051,101
000000023300002,Stará Vajnorská,48.1863708496094,17.1658210754395,101
000000013300006,Jurajov dvor,48.1822204589844,17.1631183624268,100
000000001800004,Vozovňa Trnávka,48.1788902282715,17.1656761169434,100
000000002600005,Bulharská,48.1723098754883,17.169303894043,100
000000036400002,Slovnaftská,48.1308441162109,17.1971759796143,101
000000036400001,Slovnaftská,48.1336326599121,17.2043590545654,101
000000029700002,Podzáhradná,48.1336326599121,17.2043590545654,101
000000029700001,Podzáhradná,48.1336212158203,17.2038116455078,101
000000021800002,Mierová,48.1488838195801,17.166877746582,100
000000016500002,Krásna,48.1457633972168,17.1687335968018,100
000000016500001,Krásna,48.1460990905762,17.1687774658203,100
000000052500002,Syslia,48.1427116394043,17.1686592102051,100
000000052500001,Syslia,48.1428527832031,17.1689376831055,100
000000051900002,ŽST ÚNS,48.1419219970703,17.1709651947021,100
000000051900001,ŽST ÚNS,48.1419563293457,17.1706485748291,100
000000006300002,Domkárska,48.1429862976074,17.1813564300537,100
000000006300001,Domkárska,48.1429214477539,17.1801662445068,100
000000000600005,Astronomická,48.1586875915527,17.1766357421875,100
000000044700002,Váhostav,48.1575393676758,17.1898422241211,101
000000044700001,Váhostav,48.1582374572754,17.1889095306396,101
000000050800002,Železničná,48.1473274230957,17.2096900939941,101
000000050800001,Železničná,48.1477508544922,17.2089824676514,101
000000004200003,Čiližská,48.1439666748047,17.212818145752,101
000000001700001,Bodrocká,48.1327857971191,17.2082824707031,101
000000015900001,Korytnická,48.1303291320801,17.2059688568115,101
000000024300001,Nákupná,48.1286735534668,17.2086238861084,101
000000027800002,MiÚ P. Biskupice,48.1249732971191,17.2111186981201,101
000000027800003,MiÚ P. Biskupice,48.1248664855957,17.2117881774902,101
000000005500002,Devätinová,48.1219024658203,17.215705871582,101
000000005500001,Devätinová,48.1222534179688,17.2158718109131,101
000000042900002,Vinohradnícka,48.1228179931641,17.2192554473877,101
000000042900001,Vinohradnícka,48.1227874755859,17.2190418243408,101
000000009600002,Holíčska,48.1066093444824,17.1043281555176,100
000000007700001,Ekonomická univerzita,48.1262855529785,17.1309185028076,100
000000007700002,Ekonomická univerzita,48.1257019042969,17.1310272216797,100
000000058100001,Most Apollo,48.139461517334,17.1287326812744,100
000000032700001,Prístavná,48.1426086425781,17.130615234375,100
000000016000001,Košická,48.1461143493652,17.1326217651367,100
000000016000004,Košická,48.1447296142578,17.1313705444336,100
000000048300003,Fatruny,48.1709022521973,17.1916236877441,101
000000070500001,Pharos,48.1614723205566,17.1892471313477,101
000000070500002,Pharos,48.1612777709961,17.1892223358154,101
000000036200002,Vlčie hrdlo,48.1286506652832,17.1760883331299,100
000000012000002,Refinery Gallery,48.1292381286621,17.1798458099365,101
000000012000001,Refinery Gallery,48.1294136047363,17.1791725158691,101
000000011200002,Závodná,48.1299209594727,17.1864585876465,101
000000011200001,Závodná,48.1308441162109,17.1971759796143,101
000000069600002,Ulica svornosti,48.1305122375488,17.1894187927246,101
000000069600001,Ulica svornosti,48.1307220458984,17.1916980743408,101
000000039800002,Šikmá,48.1276054382324,17.2025356292725,101
000000039800001,Šikmá,48.127513885498,17.2028636932373,101
000000025400002,Nemocnica P. Biskupice,48.1242942810059,17.2073307037354,101
000000025400001,Nemocnica P. Biskupice,48.1245422363281,17.2072296142578,101
000000027800001,MiÚ P. Biskupice,48.1249008178711,17.2109622955322,101
000000029100001,Petöfiho,48.1287841796875,17.2161178588867,101
000000051600002,ŽST P. Biskupice,48.1304473876953,17.220796585083,101
000000000800004,Bajkalská,48.1607322692871,17.1410865783691,100
000000000800003,Bajkalská,48.161003112793,17.1395092010498,100
000000006700001,Drieňová,48.1587753295898,17.1433925628662,100
000000022500002,Mliekárenská,48.1532287597656,17.1467056274414,100
000000022500001,Mliekárenská,48.1543502807617,17.1465282440186,100
000000036200006,Vlčie hrdlo,48.1287536621094,17.1761589050293,100
000000000800005,Bajkalská,48.1620826721191,17.1403713226318,100
000000025700003,Nová doba,48.1654167175293,17.1364669799805,100
000000010800002,Hubeného,48.196418762207,17.1401748657227,101
000000010800001,Hubeného,48.1959037780762,17.1415901184082,101
000000013800002,Kadnárova,48.199405670166,17.1408061981201,101
000000013800001,Kadnárova,48.1991767883301,17.1409358978271,101
000000036200004,Vlčie hrdlo,48.1284942626953,17.1758422851563,100
000000036200003,Vlčie hrdlo,48.1286239624023,17.1746711730957,100
000000036300002,Vlčie hrdlo-sídlisko,48.1288719177246,17.1656818389893,100
000000036300001,Vlčie hrdlo-sídlisko,48.1288223266602,17.1658363342285,100
000000019400002,Lodenica,48.1285171508789,17.1587619781494,100
000000019400001,Lodenica,48.1286582946777,17.1588573455811,100
000000030300002,Povodie Dunaja,48.124195098877,17.1587944030762,100
000000030300001,Povodie Dunaja,48.1240119934082,17.1588268280029,100
000000060900002,Vlčie hrdlo-záhrady,48.1230316162109,17.1619205474854,100
000000060900001,Vlčie hrdlo-záhrady,48.1229858398438,17.1620025634766,100
000000022000002,Micherov majer,48.1167068481445,17.163272857666,100
000000022000001,Micherov majer,48.1167068481445,17.1635570526123,100
000000046100001,Vodostav,48.1056060791016,17.1479511260986,100
000000004400002,ČOV Vlčie hrdlo,48.112621307373,17.1658535003662,100
000000004400001,ČOV Vlčie hrdlo,48.112865447998,17.1658420562744,100
000000037200002,Spaľovňa,48.1082611083984,17.1672420501709,100
000000037200001,Spaľovňa,48.1080856323242,17.1672744750977,100
000000060700006,Nové SND,48.141284942627,17.1199741363525,100
000000060700005,Nové SND,48.141284942627,17.1199741363525,100
000000004200005,Čiližská,48.1452598571777,17.2118434906006,101
000000004200004,Čiližská,48.1452407836914,17.2117462158203,101
000000057500002,Podunajská,48.1418342590332,17.1975898742676,101
000000057500001,Podunajská,48.1420364379883,17.1979217529297,101
000000051600004,ŽST P. Biskupice,48.1307792663574,17.2201404571533,101
000000044200002,Učiteľská,48.1273345947266,17.21217918396,101
000000001300002,Lieskovská cesta,48.1202392578125,17.2055778503418,101
000000001300001,Lieskovská cesta,48.1205558776855,17.205753326416,101
000000029900002,PD P. Biskupice,48.118595123291,17.2049007415771,101
000000029900001,PD P. Biskupice,48.1185646057129,17.2049541473389,101
000000011300002,Jánske hony,48.1146926879883,17.2033405303955,101
000000011300001,Jánske hony,48.1148376464844,17.203441619873,101
000000032900002,Plniareň plynu,48.1123237609863,17.2023963928223,101
000000032900001,Plniareň plynu,48.1123161315918,17.202465057373,101
000000019100002,Lieskovec,48.1007499694824,17.1979541778564,101
000000019100001,Lieskovec,48.1008491516113,17.197883605957,101
000000019100003,Lieskovec,48.1007804870605,17.1977977752686,101
000000014600002,Ketelec,48.0913162231445,17.1952610015869,101
000000014600001,Ketelec,48.0913963317871,17.1951751708984,101
000000040800002,Topoľové,48.083568572998,17.2005233764648,101
000000040800001,Topoľové,48.0835800170898,17.2007179260254,101
000000015200003,Kollárovo nám.,48.1497917175293,17.1132869720459,100
000000051700002,ŽST Petržalka,48.1214752197266,17.0979518890381,100
000000051700001,ŽST Petržalka,48.1221313476563,17.0986423492432,100
000000061700002,Dargovská,48.1204147338867,17.0889644622803,100
000000061700001,Dargovská,48.1204872131348,17.0888023376465,100
000000057900002,Cintorín Petržalka,48.1187477111816,17.0868377685547,100
000000057900001,Cintorín Petržalka,48.1188774108887,17.0868034362793,100
000000052800002,Kopčianska,48.112548828125,17.0908641815186,100
000000052800001,Kopčianska,48.1124382019043,17.0909614562988,100
000000006200002,Kopčany,48.1136589050293,17.0870170593262,100
000000006200001,Kopčany,48.1133842468262,17.0875015258789,100
000000060700007,Nové SND,48.1421775817871,17.1229019165039,100
000000067100001,Schengenská,48.0221366882324,17.1931858062744,101
000000067100002,Schengenská,48.0219421386719,17.1932125091553,101
000000067400001,"Rajka,Gépjavító",48.0001182556152,17.1938610076904,820
000000067200002,"Rajka,Calida kötöde",47.9991836547852,17.1981315612793,820
000000061000002,"Rajka,autóbuszforduló",47.9948959350586,17.2058448791504,820
000000067300001,Rajka,47.9919662475586,17.1948471069336,820
000000068900001,Suché mýto,48.1466979980469,17.1068859100342,100
000000068900002,Suché mýto,48.1463928222656,17.1071014404297,100
000000025100001,Nám. SNP,48.1448211669922,17.1120796203613,100
000000033600003,Rajská,48.1463661193848,17.1153545379639,100
000000053800001,Dunajská,48.144832611084,17.1161556243896,100
000000026100006,Most SNP,48.1402397155762,17.1043491363525,100
000000047400001,Výstavisko,48.1339721679688,17.0975475311279,100
000000011800001,Viedenská cesta,48.1364974975586,17.1042156219482,100
000000057600001,Viedenská električka,48.1364097595215,17.1092777252197,100
000000055200001,Krasovského,48.1346206665039,17.1149768829346,100
000000034800001,Sad J. Kráľa,48.1357269287109,17.1154174804688,100
000000042600002,TECHNOPOL,48.1103820800781,17.113109588623,100
000000031000004,Pri kríži,48.1946067810059,17.0342426300049,101
000000032600001,Prístav,48.1414604187012,17.1442241668701,100
000000032600002,Prístav,48.1408996582031,17.1451206207275,100
000000029400001,Plynárenská,48.1420745849609,17.1403293609619,100
000000029400002,Plynárenská,48.1417655944824,17.1420021057129,100
000000032700003,Prístavná,48.1417655944824,17.1420021057129,100
000000032700002,Prístavná,48.1423606872559,17.1290378570557,100
000000030700002,Landererova,48.1427116394043,17.1236629486084,100
000000012700003,Jasovská,48.0945281982422,17.1182823181152,100
000000067100004,Schengenská,48.0226249694824,17.1930351257324,101
000000064600002,Čunovo-záhrady,48.0215072631836,17.1983089447021,101
000000064600001,Čunovo-záhrady,48.0217475891113,17.197395324707,101
000000056700001,Čunovo-priehrada,48.0297355651855,17.2253818511963,101
000000056700002,Čunovo-priehrada,48.0298347473145,17.225757598877,101
000000056800001,Areál vodných športov,48.0328712463379,17.2311000823975,101
000000056800002,Areál vodných športov,48.0330085754395,17.2314987182617,101
000000061300004,"Wolfsthal, Bhf, Hauptstrasse 40",48.1364822387695,17.0081062316895,920
000000061300003,"Wolfsthal, Bhf, Hauptstrasse 40",48.1361236572266,17.0087394714355,920
000000064400002,Hainburg/Pressburger Reichsstrase,48.1465873718262,16.9551277160645,920
000000064400001,Hainburg/Pressburger Reichsstrase,48.1465835571289,16.9543609619141,920
000000064200002,"Hainburg,Hauplatz",48.147331237793,16.9410953521729,920
000000064300001,"Hainburg,Ungartor/B9",48.1471138000488,16.9471778869629,920
000000064500001,Hainburg/Wiener Tor,48.1455230712891,16.9382514953613,920
000000061400002,"Hainburg/Donau, Pfaffenbergweg",48.1403121948242,16.9220142364502,920
000000061400001,"Hainburg/Donau, Pfaffenbergweg",48.1400337219238,16.9214134216309,920
000000047100003,Jána Jonáša - VW,48.2252044677734,16.9915904998779,101
000000047500002,Vyšehradská,48.0949020385742,17.1072273254395,100
000000036600002,Malý Draždiak,48.1122512817383,17.1212310791016,100
000000036600001,Malý Draždiak,48.1121559143066,17.1193542480469,100
000000006600002,Starý háj,48.1121673583984,17.1243114471436,100
000000006600001,Starý háj,48.1124382019043,17.1234588623047,100
000000015800001,Kopčany-sídlisko,48.1148986816406,17.0928173065186,100
000000015800002,Kopčany-sídlisko,48.1146354675293,17.0922870635986,100
000000034000003,Romanova,48.1172218322754,17.1098651885986,100
000000034000004,Romanova,48.1173858642578,17.1094627380371,100
